Date,Adress,Size,Rooms,Broker,Rent,Price,NearbyPOIs,Latitude,Longitude,PricePerKvm,PricePerRoom
20210610.0,Skebokvarnsvägen 366,92.5,4.0,Fastighetsbyrån Farsta/ Högdalen/ Skogås,5953.0,3950000.0,21.0,59.26197969166089,18.04023742675781,42703.0,987500.0
20210610.0,Beckomberga Ängsväg 22,91.0,4.0,Svenska Mäklarhuset Bromma,4730.0,5000000.0,20.0,59.356955441303576,17.89947509765625,54945.0,1250000.0
2021069.0,Brf Grindavik - Kista Gårdsväg,91.1,4.0,Våningen & Villan Stockholm,4803.0,3995000.0,82.0,59.40739801259093,17.943506240844727,43853.0,998750.0
2021069.0,Arbetargatan 23A,92.0,3.0,HusmanHagberg Kungsholmen,4338.0,6650000.0,468.0,59.33454966448464,18.02719116210937,72283.0,2216667.0
2021069.0,Kista Alléväg 9,91.1,4.0,Våningen & Villan Stockholm,4803.0,3995000.0,81.0,59.40766386158333,17.944107055664062,43853.0,998750.0
2021062.0,Hammarögatan 26,93.0,4.0,Fastighetsbyrån Farsta/ Högdalen/ Skogås,5446.0,4095000.0,1800.0,59.32915150430002,18.06255340576172,44032.0,1023750.0
2021062.0,Midskeppsgatan 10,93.0,4.0,Svenska Mäklarhuset Hammarby Sjöstad,4526.0,6900000.0,126.0,59.30161436983947,18.10615539550781,74194.0,1725000.0
2021062.0,Pelle Svanslös Gata 3,95.0,4.0,Bjurfors Bromma,5417.0,5500000.0,75.0,59.36500390671915,17.950973510742188,57895.0,1375000.0
20210527.0,Midskeppsgatan 12,93.0,4.0,Svenska Mäklarhuset Hammarby Sjöstad,4521.0,7300000.0,127.0,59.30196491325117,18.10615539550781,78495.0,1825000.0
20210527.0,Blackensvägen 57A,93.6,4.0,SkandiaMäklarna Älvsjö,4446.0,5600000.0,57.0,59.28232891857718,17.993545532226562,59829.0,1400000.0
20210527.0,Sandalettgatan 5,95.0,4.0,Erik Olsson Fastighetsförmedling,5067.0,6000000.0,44.0,59.28162742348764,18.007278442382812,63158.0,1500000.0
20210526.0,Hildebergsvägen 24,94.5,4.0,BOSTHLM Älvsjö,5492.0,6100000.0,182.0,59.30266598923771,18.028564453125,64550.0,1525000.0
20210526.0,Blekegatan 5,91.0,4.0,BOSTHLM Älvsjö,3904.0,6750000.0,188.0,59.306521648894176,18.02650451660156,74176.0,1687500.0
20210525.0,Måbärsstigen 29 Q,95.0,4.0,HusmanHagberg Vällingby/Hässelby/Spånga,2726.0,4650000.0,14.0,59.36675332054797,17.828750610351562,48947.0,1162500.0
20210525.0,Björksundsslingan 15,90.0,4.0,Fastighetsbyrån Farsta/ Högdalen/ Skogås,4831.0,4320000.0,24.0,59.267594485949715,18.053970336914066,48000.0,1080000.0
20210525.0,Korphoppsgatan 20,93.0,4.0,Svensk Fastighetsförmedling Hammarby Sjöstad,5691.0,7460000.0,199.0,59.30301652181264,18.100662231445312,80215.0,1865000.0
20210524.0,Skebokvarnsvägen 366,92.5,4.0,Fastighetsbyrån Farsta/ Högdalen/ Skogås,5953.0,4420000.0,21.0,59.26197969166089,18.04023742675781,47784.0,1105000.0
20210524.0,Sandalettgatan 7,94.0,4.0,Fastighetsbyrån Hägersten/Älvsjö,5029.0,5900000.0,49.0,59.28197817283924,18.007278442382812,62766.0,1475000.0
20210521.0,Lagavägen 18,90.5,4.0,Fastighetsbyrån Enskede,6492.0,6300000.0,28.0,59.27741814939456,18.128814697265625,69613.0,1575000.0
20210519.0,Mörsilsgatan 28,94.0,4.0,Länsförsäkringar Fastighetsförmedling Stockholm - Vällingby,4393.0,4590000.0,32.0,59.36535379670071,17.876129150390625,48830.0,1147500.0
20210519.0,Narviksgatan 17,91.0,4.0,HusmanHagberg Kista,6509.0,2760000.0,15.0,59.41290523298785,17.923507690429688,30330.0,690000.0
20210519.0,Kabelverksgatan 3,94.0,4.0,BOSTHLM Älvsjö,4859.0,5800000.0,33.0,59.280575153750675,18.004531860351562,61702.0,1450000.0
20210518.0,Gulddragargränd 52,95.0,4.0,Restate,5475.0,4000000.0,28.0,59.36290449106232,17.856216430664062,42105.0,1000000.0
20210517.0,Alpvägen 27,95.0,4.0,Svenska Mäklarhuset Bromma,4827.0,6505000.0,85.0,59.36185473452511,17.952346801757812,68474.0,1626250.0
20210515.0,Drakflygargatan 6,94.5,4.0,Fastighetsbyrån Enskede,5543.0,3930000.0,26.0,59.26969979523632,18.12538146972656,41587.0,982500.0
20210515.0,Klintbacken 72b,90.0,4.0,Mäklarhuset Bromma,5372.0,6450000.0,101.0,59.360455008627824,17.953720092773438,71667.0,1612500.0
20210514.0,Fjärdholmsgränd 9B,95.0,4.0,SkandiaMäklarna Hägersten,5118.0,2300000.0,6.0,59.27706735306326,17.887802124023438,24211.0,575000.0
20210514.0,Storsegelvägen 12,90.0,4.0,Notar,4875.0,7050000.0,133.0,59.31703486305407,17.99835205078125,78333.0,1762500.0
20210512.0,Multrågatan 110,90.0,4.0,Fastighetsbyrån Hässelby/Vällingby/Spånga,5882.0,3000000.0,34.0,59.35940517631832,17.882308959960938,33333.0,750000.0
20210512.0,Spikskogatan 16,92.0,4.0,Erik Olsson Fastighetsförmedling,4954.0,5050000.0,49.0,59.28197817283924,18.005218505859375,54891.0,1262500.0
20210512.0,Sandfjärdsgatan 110,91.5,4.0,BOSthlm Årsta,5487.0,5500000.0,46.0,59.292498973145676,18.05259704589844,60109.0,1375000.0
20210512.0,Sockenvägen 609,91.0,4.0,BOSthlm Årsta,5158.0,5350000.0,31.0,59.28127667052236,18.12538146972656,58791.0,1337500.0
20210512.0,Götgatan 116,93.0,4.0,BOSTHLM Fastighetsmäklare AB,3968.0,7210000.0,873.0,59.30827407698463,18.073883056640625,77527.0,1802500.0
20210511.0,Sockenvägen 607,91.0,4.0,Svensk Fastighetsförmedling Farsta-Enskede,5159.0,5500000.0,31.0,59.28127667052236,18.12538146972656,60440.0,1375000.0
20210511.0,Svartviksslingan 23,90.5,4.0,MOHV Bromma,4890.0,6500000.0,108.0,59.340502640902535,17.9901123046875,71823.0,1625000.0
2021058.0,Hammarögatan 26,93.0,4.0,Fastighetsbyrån Farsta/ Högdalen/ Skogås,5446.0,4095000.0,1800.0,59.32915150430002,18.06255340576172,44032.0,1023750.0
2021055.0,Vantörsvägen 275,94.5,4.0,Fastighetsbyrån Hägersten/Älvsjö,4358.0,5050000.0,29.0,59.286186883200166,17.95440673828125,53439.0,1262500.0
2021055.0,Nybodaringen 105,95.0,4.0,Bjurfors Liljeholmen Hägersten,5032.0,7400000.0,188.0,59.30371757612586,18.02581787109375,77895.0,1850000.0
2021055.0,Hammarögatan 7,94.0,4.0,Fastighetsbyrån Farsta/ Högdalen/ Skogås,5197.0,3350000.0,1800.0,59.32915150430002,18.06255340576172,35638.0,837500.0
2021055.0,Hammarögatan 7,94.0,4.0,Fastighetsbyrån Farsta/ Högdalen/ Skogås,5197.0,3800000.0,1800.0,59.32915150430002,18.06255340576172,40426.0,950000.0
2021054.0,Odelbergsvägen 36,94.0,4.0,Svensk Fastighetsförmedling Hammarbyhöjden,6347.0,7280000.0,89.0,59.289343074505474,18.069076538085934,77447.0,1820000.0
2021054.0,Pilvingegatan 48,90.0,4.0,HusmanHagberg Enskede,5480.0,4250000.0,23.0,59.269348919391604,18.12744140625,47222.0,1062500.0
2021053.0,Hammarögatan 7,94.0,4.0,Fastighetsbyrån Farsta/ Högdalen/ Skogås,5197.0,3600000.0,1800.0,59.32915150430002,18.06255340576172,38298.0,900000.0
2021053.0,Hammarögatan 7,94.0,4.0,Fastighetsbyrån Farsta/ Högdalen/ Skogås,5197.0,3500000.0,1800.0,59.32915150430002,18.06255340576172,37234.0,875000.0
20210430.0,Lillhagsvägen 22,90.0,4.0,Fastighetsbyrån Farsta/ Högdalen/ Skogås,6259.0,2950000.0,21.0,59.267594485949715,18.012771606445312,32778.0,737500.0
20210430.0,Hammarögatan 7,94.0,4.0,Fastighetsbyrån Farsta/ Högdalen/ Skogås,5197.0,3500000.0,1800.0,59.32915150430002,18.06255340576172,37234.0,875000.0
20210429.0,Gullmarsvägen 64,90.0,3.0,Notar,4200.0,6100000.0,542.0,59.299861598595974,18.068389892578125,67778.0,2033333.0
20210429.0,Hammarögatan 7,94.0,4.0,Fastighetsbyrån Farsta/ Högdalen/ Skogås,5197.0,3650000.0,1800.0,59.32915150430002,18.06255340576172,38830.0,912500.0
20210429.0,Hammarögatan 7,94.0,4.0,Fastighetsbyrån Farsta/ Högdalen/ Skogås,5197.0,3700000.0,1800.0,59.32915150430002,18.06255340576172,39362.0,925000.0
20210429.0,Hammarögatan 7,94.0,4.0,Fastighetsbyrån Farsta/ Högdalen/ Skogås,5197.0,3650000.0,1800.0,59.32915150430002,18.06255340576172,38830.0,912500.0
20210429.0,Hammarögatan 7,94.0,4.0,Fastighetsbyrån Farsta/ Högdalen/ Skogås,5197.0,3450000.0,1800.0,59.32915150430002,18.06255340576172,36702.0,862500.0
20210428.0,Hammarögatan 7,94.0,4.0,Fastighetsbyrån Farsta/ Högdalen/ Skogås,5197.0,3550000.0,1800.0,59.32915150430002,18.06255340576172,37766.0,887500.0
20210427.0,Narviksgatan 17,91.0,4.0,Notar,6339.0,2900000.0,15.0,59.41290523298785,17.923507690429688,31868.0,725000.0
20210426.0,Horisontvägen 75,90.0,4.0,Fastighetsbyrån Enskede,6217.0,3400000.0,16.0,59.265138127315424,18.130874633789066,37778.0,850000.0
20210426.0,Sockenvägen 425,95.0,4.0,Fastighetsbyrån Enskede,5935.0,7300000.0,67.0,59.280575153750675,18.082809448242188,76842.0,1825000.0
20210426.0,Annedalsvägen 30,93.5,4.0,Bjurfors Bromma,4546.0,5400000.0,66.0,59.36535379670071,17.949600219726562,57754.0,1350000.0
20210423.0,Årstavägen 10,93.0,4.0,Tradition Fastighetsmäkleri AB,4672.0,6890000.0,96.0,59.29355087432541,18.05877685546875,74086.0,1722500.0
20210422.0,Blackebergsbacken 1,94.5,4.0,Notar,5420.0,5910000.0,15.0,59.34085278349814,17.8857421875,62540.0,1477500.0
20210422.0,Kabelverksgatan 32,95.0,4.0,BOSTHLM Älvsjö,4944.0,5875000.0,57.0,59.282679660701504,18.001785278320312,61842.0,1468750.0
20210421.0,Båtbyggargatan 62,91.0,3.0,Svenska Mäklarhuset Hammarby Sjöstad,5773.0,7200000.0,103.0,59.30582065237441,18.1109619140625,79121.0,2400000.0
20210421.0,Sköntorpsvägen 7,93.0,4.0,Notar,5793.0,6825000.0,465.0,59.2981087370418,18.06976318359375,73387.0,1706250.0
20210420.0,Personnevägen 102,95.0,4.0,Notar,4730.0,5400000.0,59.0,59.29214833219326,17.9791259765625,56842.0,1350000.0
20210420.0,Vantörsvägen 285,93.5,4.0,Länsförsäkringar Fastighetsförmedling Stockholm - Hägersten,4284.0,4880000.0,29.0,59.286186883200166,17.952346801757812,52193.0,1220000.0
20210419.0,Västertorpsvägen 168,92.0,4.0,Fastighetsbyrån Hägersten/Älvsjö,5112.0,4515000.0,29.0,59.29004441060584,17.950973510742188,49076.0,1128750.0
20210419.0,Skäftingebacken 36,94.0,4.0,HusmanHagberg Kista,6456.0,2360000.0,20.0,59.396129989226544,17.902908325195312,25106.0,590000.0
20210416.0,Härjedalsgatan 96,92.0,4.0,Svensk Fastighetsförmedling Vällingby/Hässelby/Spånga,4659.0,3300000.0,29.0,59.36710319249021,17.874755859375,35870.0,825000.0
20210414.0,Karlsbodavägen 42,91.5,4.0,Bjurfors Bromma,6213.0,5850000.0,123.0,59.35835531153387,17.961959838867188,63934.0,1462500.0
20210414.0,Majrovägen 29,93.0,4.0,ERA Enskede-Farsta kontoret,6354.0,5250000.0,21.0,59.26127777730629,18.0780029296875,56452.0,1312500.0
20210413.0,Kubbegatan 3,95.0,4.0,HusmanHagberg Farsta,4827.0,4000000.0,14.0,59.25741698987298,18.1109619140625,42105.0,1000000.0
20210413.0,Filipstadsbacken 60,91.0,4.0,Notar,5718.0,3010000.0,27.0,59.237755288974256,18.104782104492188,33077.0,752500.0
20210413.0,Redargatan 3,93.0,3.0,Svenska Mäklarhuset Hammarby Sjöstad,4622.0,7200000.0,458.0,59.30266598923771,18.090362548828125,77419.0,2400000.0
20210413.0,Bjulevägen 23,93.0,4.0,BOSTHLM Älvsjö,7496.0,3750000.0,36.0,59.280925913943385,18.042984008789066,40323.0,937500.0
20210412.0,Svartviksslingan 96,90.5,4.0,MOHV Bromma,5190.0,6800000.0,99.0,59.33945219145792,17.989425659179688,75138.0,1700000.0
20210412.0,Björngårdsgatan 3,91.0,3.0,Svensk Fastighetsförmedling Sthlm Södermalm,3903.0,7000000.0,1400.0,59.31738524754815,18.065643310546875,76923.0,2333333.0
20210411.0,Hammarby allé 119,91.0,4.0,BOSTHLM Fastighetsmäklare AB,4495.0,6900000.0,239.0,59.30336705077536,18.099288940429688,75824.0,1725000.0
2021049.0,Tellusgatan 17,95.0,3.0,Svenska Mäklarhuset Hägersten/Liljeholmen,5071.0,6500000.0,76.0,59.29880989250096,17.989425659179688,68421.0,2166667.0
2021048.0,Hammarögatan 26,93.0,4.0,Fastighetsbyrån Farsta/ Högdalen/ Skogås,5446.0,4245000.0,1800.0,59.32915150430002,18.06255340576172,45645.0,1061250.0
2021048.0,Härjedalsgatan 78,92.0,4.0,Svensk Fastighetsförmedling Vällingby/Hässelby/Spånga,4584.0,3500000.0,29.0,59.36675332054797,17.876129150390625,38043.0,875000.0
2021046.0,Karlsbodavägen 40,91.5,4.0,Fastighetsbyrån Bromma,6213.0,5300000.0,123.0,59.35835531153387,17.961959838867188,57923.0,1325000.0
2021045.0,Hammarögatan 26,93.0,4.0,Fastighetsbyrån Farsta/ Högdalen/ Skogås,5446.0,4045000.0,1800.0,59.32915150430002,18.06255340576172,43495.0,1011250.0
2021045.0,Tummelisas Gata 4,95.0,4.0,Mäklarhuset Bromma,5460.0,5750000.0,65.0,59.36220465697896,17.949600219726562,60526.0,1437500.0
20210331.0,Hammarögatan 26,93.0,4.0,Fastighetsbyrån Farsta/ Högdalen/ Skogås,5446.0,4095000.0,1800.0,59.32915150430002,18.06255340576172,44032.0,1023750.0
20210331.0,Alva myrdals gata 8,92.0,4.0,Länsförsäkringar Fastighetsförmedling Stockholm - Hägersten,5126.0,5150000.0,29.0,59.28723897948804,17.952346801757812,55978.0,1287500.0
20210331.0,Telefonvägen 25,92.0,4.0,Fastighetsbyrån Hägersten/Älvsjö,5042.0,7060000.0,96.0,59.29951103351009,18.000411987304688,76739.0,1765000.0
20210331.0,Tummelisas gata 4,95.0,4.0,Svenska Mäklarhuset Bromma,5460.0,5200000.0,65.0,59.36220465697896,17.949600219726562,54737.0,1300000.0
20210331.0,Vinodlargatan 6,95.0,4.0,Bjurfors Liljeholmen Hägersten,5317.0,6620000.0,184.0,59.30687214173611,18.03131103515625,69684.0,1655000.0
20210330.0,Hammarögatan 26,93.0,4.0,Fastighetsbyrån Farsta/ Högdalen/ Skogås,5446.0,4295000.0,1800.0,59.32915150430002,18.06255340576172,46183.0,1073750.0
20210330.0,Folkparksvägen 160,91.5,3.0,BOSTHLM Älvsjö,5313.0,4850000.0,42.0,59.28197817283924,18.011398315429688,53005.0,1616667.0
20210326.0,Skebokvarnsvägen 6,93.5,4.0,Fastighetsbyrån Farsta/ Högdalen/ Skogås,5719.0,4600000.0,25.0,59.27285751518919,18.043670654296875,49198.0,1150000.0
20210325.0,Drachmannsgatan 4,90.0,4.0,Notar,5007.0,6400000.0,26.0,59.3443540109297,17.88848876953125,71111.0,1600000.0
20210324.0,Snickerigatan 14,95.0,4.0,Länsförsäkringar Fastighetsförmedling Stockholm - Hägersten,5237.0,7330000.0,73.0,59.299160464811756,17.988739013671875,77158.0,1832500.0
20210324.0,Beckomberga Ängsväg 22,91.0,4.0,Svenska Mäklarhuset Bromma,4730.0,5400000.0,20.0,59.356955441303576,17.89947509765625,59341.0,1350000.0
20210323.0,Skönviksvägen 284,90.0,4.0,HusmanHagberg Enskede,4410.0,5820000.0,26.0,59.27180497440097,18.053970336914066,64667.0,1455000.0
20210323.0,Bergslagsvägen 74,90.5,4.0,Erik Olsson Fastighetsförmedling,4904.0,5550000.0,19.0,59.342603442332475,17.927627563476562,61326.0,1387500.0
20210319.0,Skeppstavägen 31,93.0,4.0,Fastighetsbyrån Farsta/ Högdalen/ Skogås,5516.0,4200000.0,28.0,59.26689268727064,18.058090209960934,45161.0,1050000.0
20210319.0,Tummelisas Gata 4,94.0,4.0,Svenska Mäklarhuset Bromma,5460.0,5635000.0,65.0,59.36220465697896,17.949600219726562,59947.0,1408750.0
20210318.0,Solberga hagväg 13,90.0,4.0,Länsförsäkringar Fastighetsförmedling Stockholm - Hägersten,5008.0,3500000.0,32.0,59.280575153750675,18.008651733398438,38889.0,875000.0
20210318.0,Svartviksslingan 82,90.5,4.0,MOHV Bromma,5306.0,6260000.0,86.0,59.33980234488247,17.985992431640625,69171.0,1565000.0
20210317.0,Gransätragränd 21,94.5,4.0,Länsförsäkringar Fastighetsförmedling Stockholm - Fruängen,5712.0,3200000.0,29.0,59.283731865392866,17.9132080078125,33862.0,800000.0
20210317.0,Majrovägen 27,93.0,4.0,ERA Enskede-Farsta kontoret,6417.0,5025000.0,21.0,59.26127777730629,18.078689575195312,54032.0,1256250.0
20210315.0,Tummelisas gata 4,95.0,4.0,Svenska Mäklarhuset Bromma,5460.0,5400000.0,65.0,59.36220465697896,17.949600219726562,56842.0,1350000.0
20210313.0,Kista alléväg 9,91.1,4.0,Våningen & Villan Stockholm,4803.0,3695000.0,81.0,59.40766386158333,17.944107055664062,40560.0,923750.0
20210311.0,Stjernströms Väg 9,94.3,4.0,Bjurfors Liljeholmen Hägersten,5357.0,6265000.0,51.0,59.30301652181264,17.978439331054688,66437.0,1566250.0
20210311.0,Kista Alléväg 9,91.1,4.0,Våningen & Villan Stockholm,4803.0,3795000.0,81.0,59.40766386158333,17.944107055664062,41658.0,948750.0
20210310.0,Erik Tegels väg 39,93.0,4.0,Länsförsäkringar Fastighetsförmedling Stockholm - Vällingby,5124.0,2750000.0,19.0,59.38179455652339,17.9132080078125,29570.0,687500.0
2021039.0,Tummelisas gata 4,95.0,4.0,Svenska Mäklarhuset Bromma,5460.0,5500000.0,65.0,59.36220465697896,17.949600219726562,57895.0,1375000.0
2021039.0,Plåtslagarvägen 20,90.5,4.0,HusmanHagberg Bromma,5735.0,6750000.0,33.0,59.337001016413105,17.94891357421875,74586.0,1687500.0
2021038.0,Elsa Borgs gata 46,91.0,4.0,Länsförsäkringar Fastighetsförmedling Stockholm - Hägersten,5437.0,4200000.0,29.0,59.28232891857718,17.964019775390625,46154.0,1050000.0
2021037.0,Ågesta Broväg 48,94.0,4.0,Bjurfors Hammarby/Skarpnäck & Farsta,5229.0,4885000.0,30.0,59.23986244221345,18.102035522460934,51968.0,1221250.0
2021034.0,Lillhagsvägen 24,90.0,4.0,Fastighetsbyrån Farsta/ Högdalen/ Skogås,6344.0,2880000.0,21.0,59.267594485949715,18.013458251953125,32000.0,720000.0
2021033.0,Slättåkragränd 26,95.0,4.0,Fastighetsbyrån Hägersten/Älvsjö,5255.0,3060000.0,40.0,59.290395073236354,18.032684326171875,32211.0,765000.0
2021033.0,Gransätragränd 11,94.5,4.0,Tomas Mäklarbyrå AB,5647.0,3180000.0,31.0,59.282679660701504,17.911834716796875,33651.0,795000.0
2021033.0,Pilvingegatan 42,90.0,4.0,BOSthlm Årsta,5575.0,3660000.0,24.0,59.268998039932356,18.12812805175781,40667.0,915000.0
2021032.0,Gammelgårdsvägen 28,90.0,4.0,MOHV Solna,4314.0,6995000.0,83.0,59.32229025129797,17.988739013671875,77722.0,1748750.0
2021031.0,Norrbackagatan 7,91.0,3.0,Fastighetsbyrån Stockholm - Vasastan,2899.0,7240000.0,487.0,59.34015249469734,18.029937744140625,79560.0,2413333.0
20210227.0,Fyrvaktarkroken 59,93.0,4.0,HusmanHagberg Enskede,4632.0,6650000.0,143.0,59.290395073236354,18.094482421875,71505.0,1662500.0
20210227.0,Vintrosagatan 11,95.0,4.0,BOSTHLM Älvsjö,4873.0,3500000.0,20.0,59.262330643415616,18.016891479492188,36842.0,875000.0
20210226.0,Kratsbodavägen 44D,90.0,4.0,Bjurfors Bromma,4530.0,6995000.0,105.0,59.36080494551446,17.95440673828125,77722.0,1748750.0
20210226.0,Tummelisas Gata 4,94.0,4.0,Svenska Mäklarhuset Bromma,5460.0,5500000.0,65.0,59.36220465697896,17.949600219726562,58511.0,1375000.0
20210224.0,Anna sandströms gata 4,95.0,4.0,HusmanHagberg Hägersten,5215.0,5200000.0,32.0,59.287940358946784,17.966766357421875,54737.0,1300000.0
20210222.0,Västertorpsvägen 158,93.0,4.0,Fastighetsbyrån Hägersten/Älvsjö,5319.0,4800000.0,30.0,59.28969374436223,17.952346801757812,51613.0,1200000.0
20210219.0,Skeppstavägen 29,93.0,4.0,Fastighetsbyrån Farsta/ Högdalen/ Skogås,5516.0,4150000.0,28.0,59.26689268727064,18.058090209960934,44624.0,1037500.0
20210219.0,Mariehällsvägen 16,91.8,4.0,Notar,5478.0,5650000.0,113.0,59.36010506813295,17.957839965820312,61547.0,1412500.0
20210212.0,Lignagatan 7,92.0,4.0,Södermäklarna,3982.0,6800000.0,394.0,59.31528288641451,18.03749084472656,73913.0,1700000.0
20210211.0,Johan Skyttes väg 187,94.0,4.0,Fastighetsbyrån Hägersten/Älvsjö,4691.0,5550000.0,26.0,59.27847051670478,18.008651733398438,59043.0,1387500.0
20210211.0,Ålgrytebacken 12,94.0,4.0,Fastighetsbyrån Hägersten/Älvsjö,4299.0,4000000.0,12.0,59.29845931657764,17.93243408203125,42553.0,1000000.0
20210211.0,Sköntorpsvägen 126,94.0,4.0,BOSthlm Årsta,5371.0,6800000.0,267.0,59.30161436983947,18.05259704589844,72340.0,1700000.0
2021029.0,Astrakangatan 107,92.0,4.0,Blok,5381.0,2750000.0,14.0,59.37235083870166,17.839736938476562,29891.0,687500.0
2021026.0,Vintrosagatan 56 5tr,90.0,4.0,HusmanHagberg Huddinge,4694.0,2770000.0,12.0,59.259522928155576,18.02032470703125,30778.0,692500.0
2021025.0,Annedalsvägen 59,94.0,4.0,Svenska Mäklarhuset Bromma,4759.0,5500000.0,54.0,59.36535379670071,17.948226928710938,58511.0,1375000.0
2021024.0,Sköntorpsvägen 124,94.0,4.0,BOSthlm Årsta,5371.0,5625000.0,290.0,59.30196491325117,18.05328369140625,59840.0,1406250.0
2021023.0,Sköndalsvägen 116,92.5,4.0,Notar,4953.0,4250000.0,15.0,59.25215157473893,18.11714172363281,45946.0,1062500.0
2021023.0,Piongränd 13,95.0,4.0,Mats Holmgren FB,5568.0,2695000.0,12.0,59.36150480846307,17.836990356445312,28368.0,673750.0
2021022.0,Jämtlandsgatan 88,90.0,4.0,SkandiaMäklarna Vällingby/Hässelby/Kista,5204.0,3000000.0,36.0,59.360455008627824,17.871322631835938,33333.0,750000.0
20210129.0,Beckomberga Ängsväg 39,91.0,4.0,Fastighetsbyrån Bromma,4800.0,4850000.0,21.0,59.3555555133374,17.898101806640625,53297.0,1212500.0
20210129.0,Lillhagsvägen 22,90.0,4.0,Fastighetsbyrån Farsta/ Högdalen/ Skogås,6344.0,3050000.0,21.0,59.267594485949715,18.012771606445312,33889.0,762500.0
20210127.0,Harplingegränd 76,95.0,4.0,SkandiaMäklarna Årsta,4823.0,3085000.0,29.0,59.287589671024044,18.03680419921875,32474.0,771250.0
20210127.0,Beckomberga Ängsväg 20,91.0,4.0,Svenska Mäklarhuset Bromma,4730.0,4695000.0,20.0,59.35660546472486,17.898788452148438,51593.0,1173750.0
20210127.0,Grafikvägen 30,94.0,4.0,Erik Olsson Fastighetsförmedling,4770.0,6320000.0,423.0,59.29705697675893,18.075942993164066,67234.0,1580000.0
20210125.0,Högviltsgatan 10,91.0,4.0,Unik Fastighetsförmedling AB,5051.0,7400000.0,123.0,59.35660546472486,18.08624267578125,81319.0,1850000.0
20210122.0,Johan Skyttes väg 374,94.0,4.0,BOSTHLM Älvsjö,5757.0,6250000.0,36.0,59.279873622523965,17.977066040039062,66489.0,1562500.0
20210121.0,Gransätragränd 21,92.0,4.0,Notar,5242.0,3750000.0,29.0,59.283731865392866,17.9132080078125,40761.0,937500.0
20210121.0,Sturehillsvägen 9,91.0,4.0,BOSTHLM Älvsjö,4541.0,6650000.0,179.0,59.30371757612586,18.03062438964844,73077.0,1662500.0
20210120.0,Lämmelgränd 11,91.0,4.0,Bjurfors Bromma,4576.0,7280000.0,34.0,59.33525006879975,17.960586547851562,80000.0,1820000.0
20210120.0,Sjöviksbacken 47,91.0,4.0,Mäklarhuset Stockholm Innerstan,5061.0,6650000.0,182.0,59.30371757612586,18.029937744140625,73077.0,1662500.0
20210120.0,Sköntorpsvägen 124,94.0,4.0,BOSthlm Årsta,5371.0,6175000.0,290.0,59.30196491325117,18.05328369140625,65691.0,1543750.0
20210118.0,Luftskeppsgatan 10,90.0,4.0,Fastighetsbyrån Enskede,6114.0,3600000.0,15.0,59.26478720448004,18.134994506835934,40000.0,900000.0
20210116.0,Solberga hagväg 13,94.0,4.0,Länsförsäkringar Fastighetsförmedling Stockholm - Hägersten,5195.0,4125000.0,32.0,59.280575153750675,18.008651733398438,43883.0,1031250.0
20210115.0,Filipstadsbacken 50,91.0,4.0,Notar,4711.0,3265000.0,27.0,59.23810649022235,18.10409545898437,35879.0,816250.0
20210115.0,Johan Skyttes Väg 189,92.0,4.0,Svenska Mäklarhuset Älvsjö/Bandhagen,4618.0,4850000.0,27.0,59.27847051670478,18.007965087890625,52717.0,1212500.0
20210114.0,Filipstadsbacken 56,91.0,4.0,HusmanHagberg Farsta,5718.0,2900000.0,27.0,59.237755288974256,18.104782104492188,31868.0,725000.0
20210113.0,Frövigatan 12,90.0,4.0,SkandiaMäklarna Älvsjö,5078.0,2690000.0,21.0,59.265138127315424,18.01826477050781,29889.0,672500.0
20210113.0,Förlandagränd 28,95.0,4.0,Mäklarhuset Hammarbyhöjden,4743.0,3200000.0,41.0,59.2907457322538,18.034744262695312,33684.0,800000.0
20210112.0,Götgatan 118,94.0,4.0,Bjurfors Södermalm,4006.0,6960000.0,867.0,59.30792359859034,18.073883056640625,74043.0,1740000.0
20210112.0,Edagränd 14,93.0,4.0,Svenska Mäklarhuset Farsta,5295.0,4300000.0,36.0,59.23916007226682,18.098602294921875,46237.0,1075000.0
2021017.0,P O Hallmans Gata 1,93.0,4.0,Mäklarhuset Stockholm Innerstan,5374.0,7100000.0,777.0,59.33525006879975,18.03955078125,76344.0,1775000.0
20201218.0,Majrovägen 37,93.0,4.0,Fastighetsbyrån Enskede,5986.0,4500000.0,33.0,59.2605758484914,18.076629638671875,48387.0,1125000.0
20201216.0,Lignagatan 7,92.0,4.0,Fastighetsbyrån Stockholm - Södermalm,4096.0,7300000.0,394.0,59.31528288641451,18.03749084472656,79348.0,1825000.0
20201216.0,Öregrundsgatan 18,94.7,4.0,Notar,4433.0,6800000.0,92.0,59.344704113820974,18.112335205078125,71806.0,1700000.0
20201214.0,Fyrvaktarkroken 70,92.5,4.0,HusmanHagberg Enskede,5335.0,5850000.0,131.0,59.28969374436223,18.094482421875,63243.0,1462500.0
20201210.0,Folkparksvägen 182,91.5,4.0,SkandiaMäklarna Älvsjö,4874.0,4650000.0,48.0,59.28303039921221,18.011398315429688,50820.0,1162500.0
20201210.0,Lustigkullavägen 7,91.5,4.0,Fastighetsbyrån Hägersten/Älvsjö,4717.0,6000000.0,211.0,59.31528288641451,18.012771606445312,65574.0,1500000.0
20201210.0,Pargasgatan 11,93.0,4.0,Lagerlöfs,5016.0,2750000.0,7.0,59.414652176553965,17.906341552734375,29570.0,687500.0
2020129.0,Solberga ängsväg 5A,92.5,4.0,BOSTHLM Älvsjö,5585.0,4000000.0,32.0,59.28127667052236,18.012771606445312,43243.0,1000000.0
2020129.0,Sköntorpsvägen 128,94.0,4.0,BOSthlm Årsta,5371.0,5860000.0,264.0,59.30126382281549,18.051910400390625,62340.0,1465000.0
2020124.0,Folkparksvägen 182,91.5,4.0,Notar,4785.0,4580000.0,48.0,59.28303039921221,18.011398315429688,50055.0,1145000.0
2020123.0,Sorögatan 55,91.5,4.0,Fastighetsbyrån Kista,6054.0,2700000.0,75.0,59.40486813184707,17.937240600585938,29508.0,675000.0
2020123.0,Nybohovsbacken 21,91.0,4.0,Mäklarhuset Liljeholmen,4060.0,5550000.0,203.0,59.3089750229377,18.022384643554688,60989.0,1387500.0
2020122.0,Folkparksvägen 130,94.0,4.0,Svenska Mäklarhuset Älvsjö/Bandhagen,4961.0,4630000.0,72.0,59.28653758557614,18.008651733398438,49255.0,1157500.0
2020122.0,Sandalettgatan 7,94.0,4.0,Erik Olsson Fastighetsförmedling,5029.0,5500000.0,49.0,59.28197817283924,18.007278442382812,58511.0,1375000.0
2020121.0,Skeppstavägen 29,93.0,4.0,Fastighetsbyrån Farsta/ Högdalen/ Skogås,5516.0,3440000.0,28.0,59.26689268727064,18.058090209960934,36989.0,860000.0
2020121.0,Gransätragränd 10,94.0,4.0,Tomas Mäklarbyrå AB,5229.0,2850000.0,31.0,59.282679660701504,17.912521362304688,30319.0,712500.0
2020121.0,Ågesta Broväg 63,91.0,4.0,HusmanHagberg Farsta,5707.0,3875000.0,29.0,59.23880888186861,18.101348876953125,42582.0,968750.0
20201130.0,Sjöviksvägen 37,93.4,4.0,Södermäklarna,4236.0,7350000.0,186.0,59.30722263096612,18.029937744140625,78694.0,1837500.0
20201130.0,Lämmelgränd 9,91.0,4.0,Urban by ESNY,4576.0,7000000.0,35.0,59.334899868447216,17.960586547851562,76923.0,1750000.0
20201129.0,Lugnets Allé 55,94.0,4.0,Fastighetsbyrån Stockholm - Hammarby Sjöstad,5683.0,6600000.0,129.0,59.30476913050454,18.10546875,70213.0,1650000.0
20201128.0,Lofotengatan 8,91.0,4.0,Unik Fastighetsförmedling AB,6683.0,2840000.0,59.0,59.41185702359285,17.92694091796875,31209.0,710000.0
20201127.0,Askängsbacken 20 - Högst upp!,92.0,4.0,Fastighetsbyrån Bromma,5629.0,5700000.0,120.0,59.360455008627824,17.95989990234375,61957.0,1425000.0
20201127.0,Beckomberga Allé 6,90.5,4.0,Svenska Mäklarhuset Bromma,4220.0,4850000.0,14.0,59.35870527007038,17.905654907226562,53591.0,1212500.0
20201125.0,Slättgårdsvägen 93,94.0,4.0,Sjöö's Fastighetsförmedling,5318.0,4225000.0,30.0,59.2907457322538,17.95166015625,44947.0,1056250.0
20201125.0,Sköndalsvägen 116,92.5,4.0,Bjurfors Hammarby/Skarpnäck & Farsta,4871.0,3780000.0,15.0,59.25215157473893,18.11714172363281,40865.0,945000.0
20201125.0,Svärdlångsvägen 5,94.7,4.0,BOSthlm Årsta,5259.0,7125000.0,235.0,59.30161436983947,18.038864135742188,75238.0,1781250.0
20201124.0,Spikskogatan 16,94.0,4.0,Länsförsäkringar Fastighetsförmedling Stockholm - Hägersten,5029.0,5000000.0,49.0,59.28197817283924,18.005218505859375,53191.0,1250000.0
20201120.0,Elsa Borgs Gata 66,93.0,4.0,Erik Olsson Fastighetsförmedling,6107.0,4000000.0,30.0,59.28303039921221,17.964706420898438,43011.0,1000000.0
20201118.0,Lövholmsvägen 80,90.0,4.0,Fastighetsbyrån Hägersten/Älvsjö,4993.0,6875000.0,150.0,59.31388124009841,18.008651733398438,76389.0,1718750.0
20201118.0,Hägerstensvägen 99A,90.0,4.0,Notar,5801.0,7250000.0,117.0,59.305470148696486,18.007278442382812,80556.0,1812500.0
20201118.0,Falsterbovägen 10,91.0,4.0,Bjurfors Hammarby/Skarpnäck & Farsta,3835.0,4950000.0,93.0,59.2907457322538,18.11508178710937,54396.0,1237500.0
20201117.0,Gullmarsvägen 2,92.0,4.0,Länsförsäkringar Fastighetsförmedling Stockholm - Enskede,4738.0,6000000.0,500.0,59.29880989250096,18.078689575195312,65217.0,1500000.0
20201117.0,Kratsbodavägen 44D,90.0,4.0,Bronze Fastighetsförmedling AB,4530.0,6710000.0,105.0,59.36080494551446,17.95440673828125,74556.0,1677500.0
20201113.0,Hammarby Allé 157,92.0,4.0,Fastighetsbyrån Stockholm - Hammarby Sjöstad,5651.0,5835000.0,173.0,59.30266598923771,18.101348876953125,63424.0,1458750.0
20201113.0,Pollargatan 13,94.5,4.0,Svenska Mäklarhuset Hammarby Sjöstad,4942.0,6900000.0,169.0,59.31002641477888,18.10272216796875,73016.0,1725000.0
20201112.0,Elinsborgsbacken 18,94.0,4.0,Fastighetsbyrån Kista,6456.0,2200000.0,20.0,59.39752824347911,17.898101806640625,23404.0,550000.0
20201112.0,Prästgårdsgränd 12,93.0,4.0,BOSTHLM,4631.0,4370000.0,29.0,59.280925913943385,18.011398315429688,46989.0,1092500.0
20201111.0,Gamla Tyresövägen 351 D,94.0,4.0,SkandiaMäklarna Enskede,3953.0,6300000.0,42.0,59.280575153750675,18.10752868652344,67021.0,1575000.0
20201111.0,Johan Skyttes Väg 372,91.0,4.0,Mäklarhuset Älvsjö,5573.0,6520000.0,36.0,59.279873622523965,17.977066040039062,71648.0,1630000.0
20201111.0,Toffelbacken 25,93.0,4.0,BOSTHLM Älvsjö,4327.0,3575000.0,53.0,59.28548546760815,18.01483154296875,38441.0,893750.0
20201110.0,Bränningevägen 28 A,91.0,4.0,Fastighetsbyrån Årsta,4393.0,6150000.0,207.0,59.29951103351009,18.046417236328125,67582.0,1537500.0
2020119.0,Tummelisas Gata 4,95.0,4.0,Svenska Mäklarhuset Bromma,5460.0,5150000.0,65.0,59.36220465697896,17.949600219726562,54211.0,1287500.0
2020119.0,Textilgatan 21,95.0,4.0,Svenska Mäklarhuset Hammarby Sjöstad,5156.0,7350000.0,517.0,59.30371757612586,18.088302612304688,77368.0,1837500.0
2020116.0,Ellen Keys Gata 68,92.0,4.0,Hemverket AB,4599.0,5025000.0,29.0,59.283731865392866,17.964706420898438,54620.0,1256250.0
2020116.0,Hammarögatan 11,94.0,4.0,Fastighetsbyrån Farsta/ Högdalen/ Skogås,5348.0,3950000.0,1800.0,59.32915150430002,18.06255340576172,42021.0,987500.0
2020115.0,Vättersvägen 30,95.0,4.0,BOSthlm Årsta,4144.0,5750000.0,142.0,59.2949533586518,18.05877685546875,60526.0,1437500.0
2020113.0,Hammarögatan 11,94.0,4.0,Fastighetsbyrån Farsta/ Högdalen/ Skogås,5348.0,3800000.0,1800.0,59.32915150430002,18.06255340576172,40426.0,950000.0
2020113.0,Hammarögatan 11,94.0,4.0,Fastighetsbyrån Farsta/ Högdalen/ Skogås,5348.0,3750000.0,1800.0,59.32915150430002,18.06255340576172,39894.0,937500.0
2020113.0,Hammarögatan 11,94.0,4.0,Fastighetsbyrån Farsta/ Högdalen/ Skogås,5348.0,3750000.0,1800.0,59.32915150430002,18.06255340576172,39894.0,937500.0
2020113.0,Skebokvarnsvägen 4,91.0,4.0,Mäklarringen Farsta-Bandhagen-Årsta,5685.0,4675000.0,25.0,59.27285751518919,18.043670654296875,51374.0,1168750.0
2020113.0,Gröndalsvägen 166,93.0,4.0,Notar,2799.0,6250000.0,96.0,59.31388124009841,17.9901123046875,67204.0,1562500.0
2020113.0,Ålgrytevägen 29,91.5,4.0,Fastighetsmäklarna,5119.0,4200000.0,15.0,59.29845931657764,17.942047119140625,45902.0,1050000.0
20201031.0,Anna Sandströms gata 12,95.0,4.0,Länsförsäkringar Fastighetsförmedling Stockholm - Fruängen,4741.0,5100000.0,31.0,59.287589671024044,17.966079711914062,53684.0,1275000.0
20201029.0,Majrovägen 19,93.0,4.0,Fastighetsbyrån Enskede,6354.0,4000000.0,29.0,59.2609268147064,18.080062866210934,43011.0,1000000.0
20201029.0,Nybohovsbacken 42,94.0,4.0,Bjurfors Liljeholmen Hägersten,5657.0,6800000.0,217.0,59.30932549049653,18.018951416015625,72340.0,1700000.0
20201029.0,Majrovägen 35,93.0,4.0,ERA Enskede-Farsta kontoret,5869.0,3700000.0,29.0,59.2609268147064,18.076629638671875,39785.0,925000.0
20201028.0,Spikskogatan 16,93.0,4.0,Erik Olsson Fastighetsförmedling,4992.0,4850000.0,49.0,59.28197817283924,18.005218505859375,52151.0,1212500.0
20201028.0,Henriksdalsallén 24A,92.5,4.0,BOSTHLM Älvsjö,4664.0,6650000.0,163.0,59.310376871502456,18.104782104492188,71892.0,1662500.0
20201027.0,Valutavägen 66 C,91.0,4.0,Fastighetsbyrån Hägersten/Älvsjö,6106.0,5550000.0,55.0,59.2981087370418,17.977752685546875,60989.0,1387500.0
20201027.0,Fallskärmsgatan 4,92.7,4.0,SkandiaMäklarna Enskede,5567.0,3630000.0,19.0,59.26583996214177,18.13018798828125,39159.0,907500.0
20201027.0,Sockenvägen 514,90.0,3.0,HusmanHagberg Enskede,5890.0,4730000.0,46.0,59.27952285148992,18.104782104492188,52556.0,1576667.0
20201027.0,Skäftingebacken 24,91.0,4.0,Svenska Mäklarhuset Vällingby,6094.0,2050000.0,19.0,59.39647955819831,17.9022216796875,22527.0,512500.0
20201026.0,Vintrosagatan 5,95.0,4.0,BOSTHLM Älvsjö,5700.0,3200000.0,22.0,59.263383476989915,18.01551818847656,33684.0,800000.0
20201023.0,Skebokvarnsvägen 366,92.5,4.0,Fastighetsbyrån Farsta/ Högdalen/ Skogås,5953.0,4050000.0,21.0,59.26197969166089,18.04023742675781,43784.0,1012500.0
20201023.0,Essinge Brogata 3,91.0,4.0,Nestor Fastighetsmäkleri,4314.0,6850000.0,157.0,59.32509279282161,18.008651733398438,75275.0,1712500.0
20201022.0,Edagränd 12,93.0,4.0,HusmanHagberg Farsta,5295.0,4500000.0,35.0,59.23880888186861,18.099288940429688,48387.0,1125000.0
20201021.0,Västertorpsvägen 144,95.0,4.0,Länsförsäkringar Fastighetsförmedling Stockholm - Hägersten,5214.0,4100000.0,30.0,59.290395073236354,17.952346801757812,43158.0,1025000.0
20201021.0,Snickerigatan 14,95.0,4.0,Länsförsäkringar Fastighetsförmedling Stockholm - Hägersten,5237.0,7300000.0,73.0,59.299160464811756,17.988739013671875,76842.0,1825000.0
20201021.0,Gröndalsvägen 210,93.0,4.0,Notar,3802.0,7025000.0,104.0,59.31528288641451,17.989425659179688,75538.0,1756250.0
20201021.0,Sandalettgatan 1,93.0,4.0,Alicia Edelman Fastighetsmäkleri,4992.0,5150000.0,44.0,59.28162742348764,18.007278442382812,55376.0,1287500.0
20201016.0,Alva Myrdals gata 8,92.0,4.0,Fastighetsbyrån Hägersten/Älvsjö,5213.0,4600000.0,29.0,59.28723897948804,17.952346801757812,50000.0,1150000.0
20201016.0,Tunnlandsvägen 93,90.5,3.0,Svensk Fastighetsförmedling Bromma,3805.0,4600000.0,22.0,59.336300648197536,17.9351806640625,50829.0,1533333.0
20201015.0,Svartviksslingan 88,90.5,4.0,Fastighetsbyrån Bromma,5221.0,5600000.0,92.0,59.33980234488247,17.98736572265625,61878.0,1400000.0
20201015.0,Midskeppsgatan 10,93.0,4.0,Svenska Mäklarhuset Hammarby Sjöstad,4926.0,6100000.0,126.0,59.30161436983947,18.10615539550781,65591.0,1525000.0
20201015.0,Skaldevägen 64,93.0,3.0,Bjurfors Bromma,4877.0,5700000.0,23.0,59.328245375818454,17.9351806640625,61290.0,1900000.0
20201013.0,Midskeppsgatan 12,93.0,4.0,Svenska Mäklarhuset Hammarby Sjöstad,4926.0,6300000.0,127.0,59.30196491325117,18.10615539550781,67742.0,1575000.0
20201013.0,Hildebergsvägen 28 2tr,94.5,4.0,Bjurfors Liljeholmen Hägersten,5492.0,5600000.0,181.0,59.30266598923771,18.02925109863281,59259.0,1400000.0
20201012.0,Getfotsvägen 13,93.5,4.0,BOSTHLM Fastighetsmäklare AB,5098.0,5500000.0,22.0,59.26583996214177,18.076629638671875,58824.0,1375000.0
2020109.0,Götalandsvägen 251,94.0,4.0,Länsförsäkringar Fastighetsförmedling Stockholm - Hägersten,4857.0,4150000.0,28.0,59.27952285148992,18.00384521484375,44149.0,1037500.0
2020108.0,Lövholmsvägen 76,94.0,4.0,Fastighetsbyrån Hägersten/Älvsjö,5146.0,6870000.0,156.0,59.31388124009841,18.00933837890625,73085.0,1717500.0
2020107.0,Maria Bangata 17,92.5,4.0,Bjurfors Södermalm,4245.0,7050000.0,627.0,59.31388124009841,18.05259704589844,76216.0,1762500.0
2020107.0,Elsa Borgs gata 52,91.0,4.0,Länsförsäkringar Fastighetsförmedling Stockholm - Fruängen,5412.0,3640000.0,29.0,59.282679660701504,17.964706420898438,40000.0,910000.0
2020106.0,Fyrvaktarkroken 40,94.0,4.0,Svensk Fastighetsförmedling Hammarbyhöjden,5147.0,5850000.0,167.0,59.2907457322538,18.09242248535156,62234.0,1462500.0
2020106.0,Brattforsgatan 1,92.0,4.0,HusmanHagberg Farsta,5761.0,4025000.0,29.0,59.238457687853796,18.100662231445312,43750.0,1006250.0
2020102.0,Wennerbergsgatan 6B,90.0,4.0,SkandiaMäklarna Stockholm Kungsholmen,4910.0,5500000.0,211.0,59.32754482709309,18.0120849609375,61111.0,1375000.0
2020102.0,Beckomberga Ängsväg 47,92.0,4.0,Bjurfors Bromma,5231.0,5100000.0,20.0,59.35730541427385,17.898788452148438,55435.0,1275000.0
2020101.0,Malmgårdsvägen 32A,93.0,4.0,SthlmFast,6010.0,7200000.0,495.0,59.30827407698463,18.09173583984375,77419.0,1800000.0
20200930.0,Emils gata 9,91.0,4.0,Fastighetsbyrån Bromma,5239.0,4050000.0,60.0,59.36290449106232,17.94891357421875,44505.0,1012500.0
20200930.0,Klintbacken 58B,90.0,4.0,Svenska Mäklarhuset Bromma,5372.0,5260000.0,105.0,59.360455008627824,17.95440673828125,58444.0,1315000.0
20200930.0,Lövholmsvägen 82,95.0,4.0,Grand Fastighetsförmedling,5184.0,6560000.0,150.0,59.314231657094574,18.007965087890625,69053.0,1640000.0
20200926.0,Beckomberga Allé 27,91.0,4.0,Svenska Mäklarhuset Bromma,4262.0,5250000.0,14.0,59.35800534938896,17.90496826171875,57692.0,1312500.0
20200925.0,Nystadsgatan 44,92.0,4.0,HusmanHagberg Kista,5026.0,2875000.0,11.0,59.41500155445358,17.917327880859375,31250.0,718750.0
20200925.0,Skebokvarnsvägen 4,93.5,4.0,Länsförsäkringar Fastighetsförmedling Stockholm - Bandhagen,5719.0,4200000.0,25.0,59.27285751518919,18.043670654296875,44920.0,1050000.0
20200924.0,Skagafjordsgatan 10,93.0,4.0,Svensk Fastighetsförmedling Vällingby/Hässelby/Spånga,5459.0,3400000.0,83.0,59.40801331157768,17.939300537109375,36559.0,850000.0
20200922.0,Annedalsvägen 59,94.0,4.0,Bjurfors Bromma,4759.0,4750000.0,54.0,59.36535379670071,17.948226928710938,50532.0,1187500.0
20200922.0,Beckombergavägen 219,93.0,4.0,Svenska Mäklarhuset Bromma,5369.0,5300000.0,20.0,59.3555555133374,17.900848388671875,56989.0,1325000.0
20200921.0,Sibeliusgången 48,93.2,4.0,Fastighetsbyrån Kista,5428.0,2400000.0,10.0,59.41639903000744,17.909088134765625,25751.0,600000.0
20200921.0,Elkabelgatan 5,93.0,4.0,Länsförsäkringar Fastighetsförmedling Stockholm - Hägersten,4824.0,4900000.0,36.0,59.280575153750675,18.003158569335938,52688.0,1225000.0
20200921.0,Hildebergsvägen 22,94.5,4.0,Södermäklarna,5492.0,5250000.0,185.0,59.30266598923771,18.027877807617188,55556.0,1312500.0
20200918.0,Virkesvägen 17C,92.0,4.0,Svenska Mäklarhuset Hammarby Sjöstad,4747.0,6700000.0,308.0,59.30196491325117,18.09654235839844,72826.0,1675000.0
20200918.0,Stagneliusvägen 23,95.0,4.0,Svensk Fastighetsförmedling Sthlm Kungsholmen,5673.0,5795000.0,186.0,59.32754482709309,18.010711669921875,61000.0,1448750.0
20200918.0,Ullerudsbacken 51,95.0,4.0,Mäklarhuset Enskede,6046.0,4050000.0,28.0,59.2324868362365,18.10272216796875,42632.0,1012500.0
20200917.0,Kanngjutargränd 50,93.5,4.0,Mäklarringen Vällingby/Hässelby,6210.0,2970000.0,36.0,59.357655383635645,17.869949340820312,31765.0,742500.0
20200917.0,Enhörningsgränd 6,91.0,4.0,Svenska Mäklarhuset Bromma,5801.0,5800000.0,32.0,59.330697182628576,17.958526611328125,63736.0,1450000.0
20200917.0,Tummelisas gata 4,95.0,4.0,Svenska Mäklarhuset Bromma,5460.0,4800000.0,65.0,59.36220465697896,17.949600219726562,50526.0,1200000.0
20200917.0,Svartviksslingan 82,90.5,4.0,MOHV Bromma,5139.0,5725000.0,86.0,59.33980234488247,17.985992431640625,63260.0,1431250.0
20200915.0,Lindhagensgatan 77,93.0,3.0,Widerlöv Stockholm,3971.0,6420000.0,268.0,59.33384924572938,18.01483154296875,69032.0,2140000.0
20200914.0,Älvsjö torg 19,94.0,4.0,SkandiaMäklarna Älvsjö,4690.0,5050000.0,26.0,59.27903670887179,18.00882339477539,53723.0,1262500.0
20200912.0,Boktryckarvägen 8,92.6,4.0,Fastighetsbyrån Hägersten/Älvsjö,5825.0,6060000.0,72.0,59.30126382281549,17.988739013671875,65443.0,1515000.0
20200910.0,Skeppstavägen 31,93.0,4.0,Fastighetsbyrån Farsta/ Högdalen/ Skogås,5516.0,3500000.0,28.0,59.26689268727064,18.058090209960934,37634.0,875000.0
20200910.0,Tegelviksgatan 41,90.0,3.0,HusmanHagberg Södermalm/Gamla Stan,5279.0,6800000.0,279.0,59.31142822000302,18.099288940429688,75556.0,2266667.0
20200910.0,Multrågatan 126,90.0,4.0,Mäklarringen Vällingby/Hässelby,5766.0,2600000.0,33.0,59.35975512402978,17.880935668945312,28889.0,650000.0
20200910.0,Bryggvägen 14,92.0,4.0,Mäklarhuset Stockholm Innerstan,3854.0,7100000.0,133.0,59.31668447494874,17.999038696289062,77174.0,1775000.0
2020098.0,Götgatan 124,90.0,4.0,Fastighetsbyrån Stockholm - Södermalm,3794.0,6100000.0,848.0,59.30792359859034,18.075942993164066,67778.0,1525000.0
2020098.0,Vintrosagatan 56,90.0,4.0,BOSTHLM Älvsjö,4694.0,2450000.0,12.0,59.259522928155576,18.02032470703125,27222.0,612500.0
2020097.0,Solberga hagväg 13,94.0,4.0,Alicia Edelman Fastighetsmäkleri,5127.0,3700000.0,32.0,59.280575153750675,18.008651733398438,39362.0,925000.0
2020095.0,Redargatan 3,93.0,3.0,Svenska Mäklarhuset Hammarby Sjöstad,5135.0,6000000.0,458.0,59.30266598923771,18.090362548828125,64516.0,2000000.0
2020094.0,Kabelverksgatan 32,95.0,4.0,SkandiaMäklarna Älvsjö,4944.0,5300000.0,57.0,59.282679660701504,18.001785278320312,55789.0,1325000.0
2020093.0,Helsingforsgatan 47,90.0,4.0,HusmanHagberg Kista,5673.0,2300000.0,14.0,59.41220643032919,17.918014526367188,25556.0,575000.0
2020093.0,Brålunden 11,95.0,4.0,Fjelkners Fastighetsmäkleri,3849.0,6700000.0,18.0,59.33139766636693,17.929000854492188,70526.0,1675000.0
2020093.0,Majrovägen 25,93.0,4.0,ERA Enskede-Farsta kontoret,6354.0,4025000.0,29.0,59.2609268147064,18.078689575195312,43280.0,1006250.0
2020092.0,Herrängsvägen 1 B,91.0,4.0,Fastighetsbyrån Hägersten/Älvsjö,6596.0,4750000.0,21.0,59.268998039932356,17.969512939453125,52198.0,1187500.0
2020092.0,Gröndalsvägen 202,93.0,4.0,Notar,3953.0,7120000.0,100.0,59.31528288641451,17.988739013671875,76559.0,1780000.0
20200831.0,Lumaparksvägen 1,92.0,4.0,Svenska Mäklarhuset Hammarby Sjöstad,5066.0,6995000.0,341.0,59.30476913050454,18.094482421875,76033.0,1748750.0
20200828.0,Boktryckarvägen 14,90.0,4.0,HusmanHagberg Hägersten,5429.0,5300000.0,73.0,59.30091327217917,17.98736572265625,58889.0,1325000.0
20200828.0,Fyrvaktarkroken 70,92.5,4.0,Länsförsäkringar Fastighetsförmedling Stockholm - Enskede,5365.0,5560000.0,131.0,59.28969374436223,18.094482421875,60108.0,1390000.0
20200827.0,Drakenbergsgatan 5,92.0,4.0,Fastighetsbyrån Stockholm - Södermalm,3824.0,7250000.0,537.0,59.31563328896506,18.042984008789066,78804.0,1812500.0
20200827.0,Hildebergsvägen 18,95.0,4.0,BOSTHLM Älvsjö,5962.0,5505000.0,185.0,59.30266598923771,18.02719116210937,57947.0,1376250.0
20200827.0,Norrbackagatan 33,90.0,4.0,BOSTHLM Fastighetsmäklare AB,4802.0,7000000.0,517.0,59.34365379431907,18.031997680664066,77778.0,1750000.0
20200826.0,Horisontvägen 91,90.0,4.0,Fastighetsbyrån Enskede,6559.0,3540000.0,14.0,59.263734414284784,18.134307861328125,39333.0,885000.0
20200826.0,Älvsåkersgränd 10,95.0,4.0,Fastighetsbyrån Hägersten/Älvsjö,5243.0,2790000.0,31.0,59.28829104325625,18.02925109863281,29368.0,697500.0
20200826.0,Sandalettgatan 1,93.0,4.0,Mäklarhuset Älvsjö,4992.0,5410000.0,44.0,59.28162742348764,18.007278442382812,58172.0,1352500.0
20200825.0,Karlsbodavägen 44,92.0,4.0,Fjelkners Fastighetsmäkleri,6212.0,5225000.0,121.0,59.35870527007038,17.961273193359375,56793.0,1306250.0
20200820.0,Stavangergatan 26,91.0,4.0,Länsförsäkringar Fastighetsförmedling Stockholm - Kista/Tensta,5849.0,2610000.0,59.0,59.41290523298785,17.92694091796875,28681.0,652500.0
20200820.0,Sibeliusgången 44,93.2,4.0,Fastighetsbyrån Kista,5393.0,2410000.0,10.0,59.41604966652562,17.91046142578125,25858.0,602500.0
20200820.0,Ålgrytebacken 10,94.0,4.0,Fastighetsbyrån Hägersten/Älvsjö,4257.0,3800000.0,13.0,59.2981087370418,17.933120727539062,40426.0,950000.0
20200820.0,Beckomberga Ängsväg 49,92.0,4.0,Bjurfors Bromma,5231.0,4750000.0,20.0,59.357655383635645,17.897415161132812,51630.0,1187500.0
20200820.0,Hammarbyterrassen 10,90.0,4.0,BOSTHLM Fastighetsmäklare AB,4876.0,7050000.0,517.0,59.30371757612586,18.088302612304688,78333.0,1762500.0
20200814.0,Norra Stationsgatan 111,95.0,4.0,Widerlöv Stockholm,4298.0,6920000.0,472.0,59.34400390442908,18.02925109863281,72842.0,1730000.0
20200813.0,Svartviksslingan 27,90.5,3.0,Länsförsäkringar Fastighetsförmedling Stockholm - Bromma,5118.0,5850000.0,114.0,59.34085278349814,17.990798950195312,64641.0,1950000.0
20200810.0,Söderberga Allé 38,91.0,4.0,Mäklarhuset Ekerö,6423.0,2400000.0,19.0,59.35870527007038,17.895355224609375,26374.0,600000.0
2020086.0,Hållövägen 13,94.5,4.0,Länsförsäkringar Fastighetsförmedling Stockholm - Enskede,5328.0,5400000.0,137.0,59.29004441060584,18.093795776367188,57143.0,1350000.0
2020085.0,Sibeliusgången 48,93.2,4.0,Lagerlöfs,5318.0,2200000.0,10.0,59.41639903000744,17.909088134765625,23605.0,550000.0
20200720.0,Sköndalsvägen 112,92.5,4.0,SkandiaMäklarna Trångsund/Skogås/Sköndal,4927.0,3950000.0,15.0,59.25250262772356,18.117828369140625,42703.0,987500.0
20200710.0,Alpvägen 25,93.0,4.0,Bjurfors Bromma,4762.0,5050000.0,85.0,59.36220465697896,17.952346801757812,54301.0,1262500.0
2020077.0,Hållövägen 7,93.0,4.0,Svensk Fastighetsförmedling Hammarbyhöjden,4758.0,5800000.0,136.0,59.29004441060584,18.09516906738281,62366.0,1450000.0
2020074.0,Svartviksslingan 71,91.0,4.0,MOHV Bromma,4764.0,5730000.0,115.0,59.33945219145792,17.992172241210938,62967.0,1432500.0
20200626.0,Kotkagatan 15,93.0,4.0,HusmanHagberg Kista,5243.0,2400000.0,13.0,59.41500155445358,17.920761108398438,25806.0,600000.0
20200626.0,Beckomberga Ängsväg 41,91.0,4.0,Bjurfors Bromma,4800.0,4450000.0,21.0,59.35590550074178,17.898101806640625,48901.0,1112500.0
20200626.0,Piongränd 11,95.0,4.0,HusmanHagberg Vällingby/Hässelby/Spånga,5568.0,2295000.0,12.0,59.36115487879289,17.836990356445312,24158.0,573750.0
20200625.0,Hållövägen 5,93.0,4.0,Svensk Fastighetsförmedling Hammarbyhöjden,4758.0,5850000.0,136.0,59.29004441060584,18.09516906738281,62903.0,1462500.0
20200618.0,Tackjärnsvägen 11,90.5,4.0,Fastighetsbyrån Bromma,3756.0,4500000.0,112.0,59.34540430877549,17.975692749023438,49724.0,1125000.0
20200616.0,Liljeholmsgränd 9,93.0,4.0,Notar,2726.0,6600000.0,223.0,59.3110777741145,18.0230712890625,70968.0,1650000.0
20200615.0,Lidköpingsvägen 10,91.0,4.0,Svensk Fastighetsförmedling Hammarbyhöjden,4695.0,4090000.0,166.0,59.292498973145676,18.09654235839844,44945.0,1022500.0
20200612.0,Emils Gata 11A,92.0,4.0,Bjurfors Bromma,5284.0,5200000.0,53.0,59.3625545758247,17.948226928710938,56522.0,1300000.0
20200612.0,Ullaredsgränd 8,95.0,4.0,SkandiaMäklarna Årsta,5407.0,3000000.0,26.0,59.28829104325625,18.034744262695312,31579.0,750000.0
20200612.0,Maltesholmsvägen 174,93.5,4.0,Bjurfors Bromma,5479.0,2900000.0,9.0,59.35835531153387,17.83355712890625,31016.0,725000.0
20200611.0,Götalandsvägen 251,91.0,4.0,Länsförsäkringar Fastighetsförmedling Stockholm - Hägersten,4701.0,4100000.0,28.0,59.27952285148992,18.00384521484375,45055.0,1025000.0
20200611.0,Johanneshovsvägen 110,95.0,4.0,BOSthlm Årsta,5213.0,5400000.0,77.0,59.292849610485156,18.058090209960934,56842.0,1350000.0
20200610.0,Bandyvägen 48,91.0,4.0,BOSTHLM Fastighetsmäklare AB,4695.0,6150000.0,50.0,59.29109638765818,17.977066040039062,67582.0,1537500.0
2020069.0,Västertorpsvägen 150,95.0,4.0,Mäklarringen Sundbyberg/Solna,5214.0,3600000.0,30.0,59.29004441060584,17.953033447265625,37895.0,900000.0
2020069.0,Folkparksvägen 166,91.5,3.0,BOSTHLM Älvsjö,5313.0,3650000.0,48.0,59.28232891857718,18.010711669921875,39891.0,1216667.0
2020068.0,Sickla kanalgata 3,93.0,4.0,Svensk Fastighetsförmedling Hammarby Sjöstad,5816.0,6195000.0,125.0,59.30582065237441,18.10615539550781,66613.0,1548750.0
2020068.0,Folkparksvägen 166,90.0,3.0,BOSTHLM Älvsjö,5164.0,3675000.0,48.0,59.28232891857718,18.010711669921875,40833.0,1225000.0
2020065.0,Hägerstensvägen 97B,90.0,4.0,Svensk Fastighetsförmedling Hägersten-Liljeholmen,5801.0,5950000.0,117.0,59.305470148696486,18.007965087890625,66111.0,1487500.0
2020064.0,Spikskogatan 16,94.0,4.0,Erik Olsson Fastighetsförmedling,5029.0,4900000.0,49.0,59.28197817283924,18.005218505859375,52128.0,1225000.0
2020064.0,Skebokvarnsvägen 8,91.0,4.0,Länsförsäkringar Fastighetsförmedling Stockholm - Bandhagen,5566.0,4300000.0,25.0,59.272506671874105,18.043670654296875,47253.0,1075000.0
2020064.0,Frövigatan 12,90.0,4.0,Högdalen - ERA Hem Mäklarna,5079.0,2530000.0,21.0,59.265138127315424,18.01826477050781,28111.0,632500.0
2020063.0,Aprikosgatan 100,93.0,4.0,Fastighetsbyrån Hässelby/Vällingby/Spånga,6567.0,2300000.0,9.0,59.36080494551446,17.834243774414062,24731.0,575000.0
2020063.0,Slättåkragränd 18,95.0,4.0,Fastighetsbyrån Hägersten/Älvsjö,5255.0,2700000.0,40.0,59.290395073236354,18.031997680664066,28421.0,675000.0
2020062.0,Lövholmsvägen 88,94.0,4.0,Notar,5146.0,6780000.0,152.0,59.314582070479275,18.007965087890625,72128.0,1695000.0
2020062.0,Stora kvinns väg 76,94.5,4.0,Svensk Fastighetsförmedling Älvsjö,5745.0,6300000.0,34.0,59.27952285148992,17.974319458007812,66667.0,1575000.0
2020061.0,Beckombergavägen 215,93.0,4.0,Bjurfors Bromma,5369.0,4000000.0,20.0,59.355205522324454,17.900848388671875,43011.0,1000000.0
2020061.0,Knäredsgränd 12,95.0,4.0,Notar,5281.0,2720000.0,24.0,59.285836177210854,18.034744262695312,28632.0,680000.0
20200531.0,Kristinebergsvägen 14,94.0,4.0,Widerlöv Stockholm,4003.0,6500000.0,247.0,59.33384924572938,18.014144897460938,69149.0,1625000.0
20200529.0,Östersundsgatan 2,91.0,4.0,SkandiaMäklarna Vällingby/Hässelby/Kista,4815.0,3800000.0,38.0,59.35485552770285,17.885055541992188,41758.0,950000.0
20200529.0,Ormbergsvägen 10,93.0,4.0,Erik Olsson Fastighetsförmedling,3784.0,6500000.0,157.0,59.31738524754815,18.007965087890625,69892.0,1625000.0
20200528.0,Redargatan 3,93.0,3.0,Södermäklarna,5320.0,5210000.0,458.0,59.30266598923771,18.090362548828125,56022.0,1736667.0
20200528.0,Hildebergsvägen 8,95.0,4.0,Södermäklarna,5640.0,5950000.0,185.0,59.30301652181264,18.027877807617188,62632.0,1487500.0
20200528.0,Heliosgatan 50,95.0,4.0,Svenska Mäklarhuset Hammarby Sjöstad,5280.0,6460000.0,409.0,59.30476913050454,18.09242248535156,68000.0,1615000.0
20200527.0,Narviksgatan 9,91.0,4.0,Länsförsäkringar Fastighetsförmedling Stockholm - Kista/Tensta,5914.0,2800000.0,18.0,59.41220643032919,17.9241943359375,30769.0,700000.0
20200526.0,Dalbobranten 32,94.0,4.0,Notar,4671.0,5175000.0,14.0,59.25215157473893,18.111648559570312,55053.0,1293750.0
20200522.0,Beckomberga Allé 15,91.0,4.0,Svenska Mäklarhuset Bromma,4262.0,4950000.0,14.0,59.35870527007038,17.904281616210938,54396.0,1237500.0
20200520.0,Sköntorpsvägen 126,94.0,4.0,SkandiaMäklarna Årsta,5218.0,5150000.0,267.0,59.30161436983947,18.05259704589844,54787.0,1287500.0
20200519.0,Svartviksslingan 35,91.0,3.0,Fastighetsbyrån Bromma,5267.0,5962500.0,112.0,59.34015249469734,17.991485595703125,65522.0,1987500.0
20200519.0,Nybohovsbacken 46,94.0,4.0,Svensk Fastighetsförmedling Hägersten-Liljeholmen,5657.0,5995000.0,216.0,59.30932549049653,18.01826477050781,63777.0,1498750.0
20200519.0,Bäckbornas Väg 39,90.5,4.0,Svenska Mäklarhuset Bromma,5248.0,3300000.0,24.0,59.36325440269186,17.900161743164062,36464.0,825000.0
20200519.0,Hållövägen 5,94.0,4.0,Svensk Fastighetsförmedling Hammarbyhöjden,4802.0,6150000.0,136.0,59.29004441060584,18.09516906738281,65426.0,1537500.0
20200515.0,Östersundsgatan 2,91.0,4.0,SkandiaMäklarna Vällingby/Hässelby/Kista,4815.0,4000000.0,38.0,59.35485552770285,17.885055541992188,43956.0,1000000.0
20200514.0,Kristinebergsvägen 50,94.0,4.0,HusmanHagberg Kungsholmen,4260.0,7400000.0,256.0,59.332798590520774,18.014144897460938,78723.0,1850000.0
20200512.0,Midsommarvägen 41,91.0,4.0,Notar,3457.0,6300000.0,109.0,59.29951103351009,18.005905151367188,69231.0,1575000.0
2020058.0,Klintbacken 56B,90.0,4.0,Svenska Mäklarhuset Bromma,5372.0,5600000.0,106.0,59.36010506813295,17.95440673828125,62222.0,1400000.0
2020058.0,Essinge Högväg 21,90.0,4.0,Wallin & Co AB,5980.0,6530000.0,65.0,59.31878674941248,17.983932495117188,72556.0,1632500.0
2020058.0,Ågesta Broväg 63,91.0,4.0,Bjurfors Hammarby/Skarpnäck & Farsta,5707.0,3600000.0,29.0,59.23880888186861,18.101348876953125,39560.0,900000.0
2020057.0,Midsommarvägen 41,91.0,4.0,Erik Olsson Fastighetsförmedling,3457.0,6750000.0,109.0,59.29951103351009,18.005905151367188,74176.0,1687500.0
2020057.0,Getfotsvägen 11,93.5,4.0,Bjurfors Enskede,4626.0,5000000.0,24.0,59.26583996214177,18.0780029296875,53476.0,1250000.0
2020056.0,Skebokvarnsvägen 366,92.5,4.0,HusmanHagberg Älvsjö,5953.0,3750000.0,21.0,59.26197969166089,18.04023742675781,40541.0,937500.0
2020056.0,Lugnets Allé 31,90.0,4.0,Erik Olsson Fastighetsförmedling,5249.0,5600000.0,140.0,59.30301652181264,18.10340881347656,62222.0,1400000.0
2020056.0,Krakel Spektakels Gata 3,95.0,4.0,Bjurfors Bromma,4570.0,4750000.0,69.0,59.36535379670071,17.950286865234375,50000.0,1187500.0
2020056.0,Storsegelvägen 10,90.0,4.0,Bjurfors Liljeholmen Hägersten,4875.0,6250000.0,133.0,59.31703486305407,17.99835205078125,69444.0,1562500.0
2020054.0,Lars Forssells gata 20,92.5,4.0,Unik Fastighetsförmedling AB,3406.0,6950000.0,139.0,59.338051541662466,18.005218505859375,75135.0,1737500.0
20200430.0,Maltesholmsvägen 182,91.5,4.0,Fastighetsbyrån Hässelby/Vällingby/Spånga,5404.0,3300000.0,9.0,59.35835531153387,17.834930419921875,36066.0,825000.0
20200430.0,Tunnlandsvägen 1,92.0,4.0,MOHV Bromma,5138.0,4220000.0,32.0,59.33384924572938,17.941360473632812,45870.0,1055000.0
20200430.0,Östersundsgatan 6,91.0,4.0,SkandiaMäklarna Vällingby/Hässelby/Kista,4815.0,3550000.0,37.0,59.355205522324454,17.884368896484375,39011.0,887500.0
20200430.0,Förlandagränd 28,95.0,4.0,SkandiaMäklarna Årsta,4743.0,3000000.0,41.0,59.2907457322538,18.034744262695312,31579.0,750000.0
20200429.0,Dymlingsgränd 5,95.0,4.0,Svensk Fastighetsförmedling Hägersten-Liljeholmen,4961.0,4700000.0,69.0,59.290395073236354,17.986679077148438,49474.0,1175000.0
20200425.0,Råcksta gårdsväg 28,93.0,4.0,HusmanHagberg Vällingby/Hässelby/Spånga,4811.0,3650000.0,37.0,59.355205522324454,17.8857421875,39247.0,912500.0
20200422.0,Tranebergsvägen 31,91.0,4.0,Widerlöv Stockholm,4915.0,5050000.0,60.0,59.33349903093664,17.985305786132812,55495.0,1262500.0
20200422.0,Morupsgränd 15,95.0,4.0,Notar,4856.0,3100000.0,25.0,59.28653758557614,18.033370971679688,32632.0,775000.0
20200422.0,Gransätragränd 25,94.0,4.0,Tomas Mäklarbyrå AB,5333.0,3100000.0,30.0,59.283731865392866,17.914581298828125,32979.0,775000.0
20200421.0,Sjöviksbacken 47,91.0,4.0,Erik Olsson Fastighetsförmedling,5061.0,5900000.0,182.0,59.30371757612586,18.029937744140625,64835.0,1475000.0
20200418.0,Hildebergsvägen 18,95.0,4.0,Södermäklarna,5962.0,5550000.0,185.0,59.30266598923771,18.02719116210937,58421.0,1387500.0
20200417.0,Pepparvägen 62,91.0,4.0,Svensk Fastighetsförmedling Farsta-Enskede,5460.0,3650000.0,42.0,59.25109839409079,18.08418273925781,40110.0,912500.0
20200416.0,Skeppstavägen 29,93.0,4.0,Mäklarringen Farsta-Bandhagen-Årsta,5516.0,2650000.0,28.0,59.26689268727064,18.058090209960934,28495.0,662500.0
20200413.0,Solberga Hagväg 13,90.0,4.0,Mäklarhuset Älvsjö,4963.0,3650000.0,32.0,59.280575153750675,18.008651733398438,40556.0,912500.0
2020049.0,Blackebergsbacken 3,94.5,4.0,Notar,5420.0,4650000.0,15.0,59.34085278349814,17.884368896484375,49206.0,1162500.0
2020049.0,Maltesholmsvägen 174,93.5,4.0,Mäklarringen Vällingby/Hässelby,5479.0,2850000.0,9.0,59.35835531153387,17.83355712890625,30481.0,712500.0
2020048.0,Textilgatan 23,95.0,4.0,Svenska Mäklarhuset Hammarby Sjöstad,5156.0,7050000.0,518.0,59.30336705077536,18.088302612304688,74211.0,1762500.0
2020047.0,Klintbacken 62B,90.0,4.0,Svenska Mäklarhuset Bromma,5372.0,5400000.0,101.0,59.360455008627824,17.953720092773438,60000.0,1350000.0
2020047.0,Svartviksslingan 112,90.5,4.0,BOSTHLM Fastighetsmäklare AB,5019.0,5750000.0,108.0,59.33840170952597,17.990798950195312,63536.0,1437500.0
2020044.0,Svartviksslingan 23,90.5,4.0,MOHV Bromma,5234.0,5900000.0,108.0,59.340502640902535,17.9901123046875,65193.0,1475000.0
2020043.0,Sköntorpsvägen 128,94.0,4.0,BOSthlm Årsta,5218.0,5525000.0,264.0,59.30126382281549,18.051910400390625,58777.0,1381250.0
2020042.0,Sickla Kanalgata 3,93.0,4.0,Fastighetsbyrån Stockholm - Hammarby Sjöstad,5816.0,6100000.0,125.0,59.30582065237441,18.10615539550781,65591.0,1525000.0
2020042.0,Svartviksslingan 75,91.0,4.0,Länsförsäkringar Fastighetsförmedling Stockholm - Bromma,4776.0,6240000.0,115.0,59.339102034423675,17.99285888671875,68571.0,1560000.0
2020041.0,Mönstringsvägen 1,92.0,4.0,Fastighetsbyrån Sundbyberg,4995.0,3795000.0,59.0,59.385641243273646,17.9461669921875,41250.0,948750.0
20200331.0,Skäftingebacken 13,94.0,4.0,Mäklarhuset Spånga,6576.0,2370000.0,19.0,59.397178685324576,17.901535034179688,25213.0,592500.0
20200327.0,Beckomberga Allé 15,90.5,4.0,Bjurfors Bromma,4384.0,5250000.0,14.0,59.35870527007038,17.904281616210938,58011.0,1312500.0
20200325.0,Lövängsgatan 14,92.0,4.0,Notar,4701.0,7400000.0,229.0,59.35415552763377,18.0889892578125,80435.0,1850000.0
20200325.0,Nybohovsgränd 48,93.0,4.0,Notar,4288.0,4750000.0,213.0,59.30792359859034,18.01963806152344,51075.0,1187500.0
20200325.0,Annedalsvägen 59,94.0,4.0,Bjurfors Bromma,4759.0,4675000.0,54.0,59.36535379670071,17.948226928710938,49734.0,1168750.0
20200324.0,Sjöfartsgatan 8,94.5,4.0,Svenska Mäklarhuset Hammarby Sjöstad,4802.0,7350000.0,511.0,59.30441861599042,18.0889892578125,77778.0,1837500.0
20200323.0,Maria Röhls väg 7,95.0,4.0,SkandiaMäklarna Trångsund/Skogås/Sköndal,4608.0,6000000.0,15.0,59.26022487866129,18.1219482421875,63158.0,1500000.0
20200320.0,Skäftingebacken 28,94.0,4.0,Fastighetsbyrån Kista,6818.0,2175000.0,19.0,59.39647955819831,17.9022216796875,23138.0,543750.0
20200319.0,Gröndalsvägen 188,93.0,4.0,Notar,3802.0,5225000.0,97.0,59.31493248025259,17.988052368164062,56183.0,1306250.0
20200318.0,Enhörningsgränd 4,91.0,4.0,Fjelkners Fastighetsmäkleri,5750.0,5300000.0,32.0,59.330346935343954,17.958526611328125,58242.0,1325000.0
20200317.0,Marieviksgatan 45,91.0,4.0,Bjurfors Liljeholmen Hägersten,4257.0,5550000.0,194.0,59.30827407698463,18.027877807617188,60989.0,1387500.0
20200316.0,Astrakangatan 100,91.0,4.0,Fastighetsbyrån Hässelby/Vällingby/Spånga,5485.0,2550000.0,14.0,59.372001020873824,17.841796875,28022.0,637500.0
20200315.0,Våxtorpsgränd 26,95.0,4.0,Fastighetsbyrån Hägersten/Älvsjö,5410.0,2850000.0,23.0,59.28829104325625,18.0340576171875,30000.0,712500.0
20200313.0,Dalbobranten 30,94.0,4.0,Notar,4671.0,4575000.0,14.0,59.25215157473893,18.112335205078125,48670.0,1143750.0
20200312.0,Johanneshovsvägen 110,95.0,4.0,Fastighetsbyrån Årsta,5213.0,5400000.0,77.0,59.292849610485156,18.058090209960934,56842.0,1350000.0
20200312.0,Fageredsgränd 28,95.0,4.0,Fastighetsbyrån Hägersten/Älvsjö,5319.0,2600000.0,40.0,59.28969374436223,18.02925109863281,27368.0,650000.0
20200312.0,Tappvägen 37,95.0,4.0,Svenska Mäklarhuset Bromma,5217.0,4625000.0,86.0,59.36465401312968,17.952346801757812,48684.0,1156250.0
20200312.0,Filipstadsbacken 50,91.0,4.0,Mäklarringen Farsta-Bandhagen-Årsta,4745.0,2780000.0,27.0,59.23810649022235,18.10409545898437,30549.0,695000.0
20200311.0,Tackjärnsvägen 16,93.0,4.0,Fastighetsbyrån Bromma,3617.0,5250000.0,105.0,59.345054213102856,17.97637939453125,56452.0,1312500.0
2020038.0,Beckomberga Ängsväg 41,91.0,4.0,Svenska Mäklarhuset Bromma,4800.0,4650000.0,21.0,59.35590550074178,17.898101806640625,51099.0,1162500.0
2020036.0,Fyrvaktarkroken 70,92.5,4.0,Länsförsäkringar Fastighetsförmedling Stockholm - Enskede,5365.0,5700000.0,131.0,59.28969374436223,18.094482421875,61622.0,1425000.0
2020035.0,Sibbarpsgränd 35,95.0,4.0,SkandiaMäklarna Årsta,4813.0,2950000.0,38.0,59.28969374436223,18.036117553710934,31053.0,737500.0
2020035.0,Gröndalsvägen 163,93.0,4.0,Notar,4701.0,5730000.0,81.0,59.314582070479275,17.986679077148438,61613.0,1432500.0
2020034.0,Mariehällsvägen 16,91.8,4.0,Fastighetsbyrån Bromma,5478.0,5285000.0,113.0,59.36010506813295,17.957839965820312,57571.0,1321250.0
2020034.0,Lilla Aspuddsvägen 2,92.0,4.0,Svensk Fastighetsförmedling Hägersten-Liljeholmen,4676.0,7330000.0,102.0,59.30582065237441,17.999725341796875,79674.0,1832500.0
2020033.0,Pilvingegatan 56,90.0,4.0,Grand Fastighetsförmedling,5480.0,4175000.0,24.0,59.26969979523632,18.12812805175781,46389.0,1043750.0
2020033.0,Storsegelvägen 12,90.0,4.0,SkandiaMäklarna Hägersten,4875.0,6800000.0,133.0,59.31703486305407,17.99835205078125,75556.0,1700000.0
20200226.0,Majrovägen 3,92.0,4.0,Fastighetsbyrån Enskede,5863.0,4300000.0,23.0,59.26127777730629,18.082809448242188,46739.0,1075000.0
20200220.0,Franzéngatan 75,91.5,4.0,Bjurfors Kungsholmen,3573.0,7050000.0,141.0,59.33840170952597,18.005218505859375,77049.0,1762500.0
20200219.0,Fyrvaktarkroken 59,93.0,4.0,Svensk Fastighetsförmedling Hammarbyhöjden,4541.0,6100000.0,143.0,59.290395073236354,18.094482421875,65591.0,1525000.0
20200219.0,Beckomberga allé 5,91.0,4.0,Svenska Mäklarhuset Bromma,4262.0,5210000.0,15.0,59.35905522499852,17.90496826171875,57253.0,1302500.0
20200219.0,Adolfsbergsvägen 26,94.0,4.0,Svenska Mäklarhuset Bromma,4395.0,4450000.0,108.0,59.35870527007038,17.955780029296875,47340.0,1112500.0
20200219.0,Emils Gata 11,95.0,4.0,Svenska Mäklarhuset Bromma,5375.0,4505000.0,60.0,59.36290449106232,17.94891357421875,47421.0,1126250.0
20200218.0,Fyrvaktarkroken 61,93.0,4.0,Svensk Fastighetsförmedling Hammarbyhöjden,4541.0,6120000.0,143.0,59.290395073236354,18.094482421875,65806.0,1530000.0
20200212.0,Fageredsgränd 24,94.0,4.0,SkandiaMäklarna Årsta,5319.0,2735000.0,44.0,59.29004441060584,18.02925109863281,29096.0,683750.0
20200212.0,Textilgatan 23,95.0,4.0,FANTASTIC FRANK,5156.0,7300000.0,518.0,59.30336705077536,18.088302612304688,76842.0,1825000.0
20200212.0,Skäftingebacken 13,94.0,4.0,Svensk Fastighetsförmedling Vällingby/Hässelby/Spånga,6576.0,2370000.0,19.0,59.397178685324576,17.901535034179688,25213.0,592500.0
20200212.0,Söderberga Allé 44,91.0,4.0,HusmanHagberg Vällingby/Hässelby/Spånga,6423.0,2300000.0,19.0,59.35870527007038,17.896728515625,25275.0,575000.0
2020027.0,Samaritgränd 1,93.0,3.0,Svenskt Mäklarcentrum AB,4466.0,7400000.0,973.0,59.31633408323214,18.055343627929688,79570.0,2466667.0
2020027.0,Sorögatan 37,92.0,4.0,Unik Fastighetsförmedling AB,6054.0,3100000.0,75.0,59.40451864940696,17.93792724609375,33696.0,775000.0
2020027.0,Beckomberga Allé 27,91.0,4.0,Notar,4262.0,4970000.0,14.0,59.35800534938896,17.90496826171875,54615.0,1242500.0
2020025.0,Beckomberga Allé 5,91.0,4.0,Bjurfors Bromma,4262.0,4950000.0,15.0,59.35905522499852,17.90496826171875,54396.0,1237500.0
2020025.0,Franzéngatan 77,91.5,4.0,Bjurfors Kungsholmen,3573.0,6900000.0,141.0,59.33840170952597,18.005218505859375,75410.0,1725000.0
2020024.0,Ekholmsvägen 250A,91.5,4.0,Erik Olsson Fastighetsförmedling,7053.0,2100000.0,27.0,59.279873622523965,17.90496826171875,22951.0,525000.0
2020024.0,Midskeppsgatan 16,92.0,4.0,Södermäklarna,4472.0,5800000.0,127.0,59.30196491325117,18.10615539550781,63043.0,1450000.0
20200131.0,Sköndalsvägen 108,92.5,4.0,Fastighetsbyrån Farsta/ Högdalen/ Skogås,4871.0,3850000.0,16.0,59.252853677092475,18.11714172363281,41622.0,962500.0
20200131.0,Lillhagsvägen 14,90.0,4.0,BOSTHLM Älvsjö,6259.0,2525000.0,21.0,59.26724358841752,18.012771606445312,28056.0,631250.0
20200130.0,Ålgrytebacken 9,94.0,4.0,HusmanHagberg Hägersten,4300.0,3500000.0,12.0,59.29845931657764,17.930374145507812,37234.0,875000.0
20200130.0,Ålgrytebacken 15,94.0,4.0,Bjurfors Huddinge/Älvsjö,4341.0,3330000.0,12.0,59.29880989250096,17.931747436523438,35426.0,832500.0
20200129.0,Majrovägen 3,92.0,4.0,Fastighetsbyrån Enskede,5863.0,4420000.0,23.0,59.26127777730629,18.082809448242188,48043.0,1105000.0
20200129.0,Runda vägen 36B,92.3,4.0,HusmanHagberg Bromma,5296.0,6900000.0,46.0,59.32929617182799,17.981185913085938,74756.0,1725000.0
20200129.0,Edagränd 8,93.0,4.0,Bjurfors Hammarby/Skarpnäck & Farsta,4823.0,3700000.0,32.0,59.238457687853796,18.0999755859375,39785.0,925000.0
20200128.0,Beckombergavägen 217,93.0,4.0,Bjurfors Bromma,5369.0,4580000.0,20.0,59.3555555133374,17.900848388671875,49247.0,1145000.0
20200124.0,Sandalettgatan 5,95.0,4.0,Erik Olsson Nyproduktion,5067.0,5610000.0,44.0,59.28162742348764,18.007278442382812,59053.0,1402500.0
20200124.0,Elsa Borgs Gata 66,93.0,4.0,SthlmFast,6107.0,4150000.0,30.0,59.28303039921221,17.964706420898438,44624.0,1037500.0
20200123.0,Mörsilsgatan 28,94.0,4.0,Fastighetsbyrån Hässelby/Vällingby/Spånga,4184.0,3825000.0,32.0,59.36535379670071,17.876129150390625,40691.0,956250.0
20200123.0,Tummelisas gata 4,95.0,4.0,Fastighetsbyrån Bromma,5460.0,4700000.0,65.0,59.36220465697896,17.949600219726562,49474.0,1175000.0
20200122.0,Lingvägen 122,94.0,4.0,Svensk Fastighetsförmedling Farsta-Enskede,5903.0,4660000.0,23.0,59.26127777730629,18.08349609375,49574.0,1165000.0
20200121.0,Hållövägen 5,93.0,4.0,Svensk Fastighetsförmedling Hammarbyhöjden,4758.0,6150000.0,136.0,59.29004441060584,18.09516906738281,66129.0,1537500.0
20200121.0,Maria Bangata 17,90.0,4.0,Mäklarhuset Stockholm Innerstan,4133.0,6720000.0,627.0,59.31388124009841,18.05259704589844,74667.0,1680000.0
20200121.0,Sköntorpsvägen 126,94.0,4.0,BOSthlm Årsta,5218.0,5485000.0,267.0,59.30161436983947,18.05259704589844,58351.0,1371250.0
20200120.0,Kabelverksgatan 14,95.0,4.0,SkandiaMäklarna Älvsjö,4944.0,5160000.0,55.0,59.28232891857718,18.002471923828125,54316.0,1290000.0
20200119.0,Lövholmsvägen 80,94.0,4.0,Notar,5146.0,6800000.0,150.0,59.31388124009841,18.008651733398438,72340.0,1700000.0
20200118.0,Tideliusgatan 63,90.0,4.0,Mäklarhuset Stockholm Innerstan,4134.0,6400000.0,833.0,59.31002641477888,18.064956665039066,71111.0,1600000.0
20200117.0,Kubbegatan 3,95.0,4.0,Notar,4597.0,3150000.0,14.0,59.25741698987298,18.1109619140625,33158.0,787500.0
20200116.0,Majrovägen 1,92.0,4.0,Fastighetsbyrån Enskede,5863.0,4200000.0,23.0,59.26127777730629,18.08349609375,45652.0,1050000.0
20200116.0,Garagevägen 32,91.0,4.0,Länsförsäkringar Fastighetsförmedling Stockholm - Enskede,4669.0,5665000.0,132.0,59.28969374436223,18.095855712890625,62253.0,1416250.0
20200116.0,Pollargatan 22,92.0,4.0,Fastighetsbyrån Stockholm - Hammarby Sjöstad,5256.0,6700000.0,170.0,59.310376871502456,18.10272216796875,72826.0,1675000.0
20200116.0,Tegelviksgatan 41,92.0,4.0,Notar,5327.0,6500000.0,279.0,59.31142822000302,18.099288940429688,70652.0,1625000.0
20200116.0,Lillhagsvägen 10,90.0,4.0,SkandiaMäklarna Älvsjö,5899.0,2645000.0,21.0,59.26724358841752,18.011398315429688,29389.0,661250.0
20200115.0,Mariehällsvägen 6,91.0,4.0,Notar,5560.0,4975000.0,114.0,59.35940517631832,17.957839965820312,54670.0,1243750.0
20200115.0,Snickerigatan 14,95.0,4.0,Länsförsäkringar Fastighetsförmedling Stockholm - Hägersten,5457.0,6300000.0,73.0,59.299160464811756,17.988739013671875,66316.0,1575000.0
20200115.0,Kotkagatan 17,93.0,4.0,HusmanHagberg Kista,5124.0,2330000.0,13.0,59.41500155445358,17.920761108398438,25054.0,582500.0
20200115.0,Eyvind Johnsons gata 7,94.0,4.0,Diplomat Fastighetmäkleri,4396.0,7140000.0,146.0,59.34015249469734,18.008651733398438,75957.0,1785000.0
20200110.0,Svartviksslingan 43,91.0,4.0,Fastighetsbyrån Bromma,5099.0,4600000.0,108.0,59.34015249469734,17.990798950195312,50549.0,1150000.0
2020019.0,Kolbäcksgränd 21,93.0,4.0,Länsförsäkringar Fastighetsförmedling Stockholm - Enskede,5875.0,5650000.0,13.0,59.276716553117936,18.14117431640625,60753.0,1412500.0
2020013.0,Torsbygatan 20,91.0,4.0,Bjurfors Hammarby/Skarpnäck & Farsta,4331.0,2950000.0,39.0,59.243374074957856,18.09654235839844,32418.0,737500.0
20191218.0,Boktryckarvägen 8,95.0,4.0,BOSTHLM Fastighetsmäklare AB,5995.0,5400000.0,72.0,59.30126382281549,17.988739013671875,56842.0,1350000.0
20191217.0,Norra Stationsgatan 111,95.0,4.0,HusmanHagberg Vasastan,4298.0,6600000.0,472.0,59.34400390442908,18.02925109863281,69474.0,1650000.0
20191214.0,Pargasgatan 34,93.0,4.0,Svensk Fastighetsförmedling Vällingby/Hässelby/Spånga,4821.0,2200000.0,7.0,59.413953409941215,17.90771484375,23656.0,550000.0
20191213.0,Fyrvaktarkroken 59,94.0,4.0,Svensk Fastighetsförmedling Hammarbyhöjden,4593.0,6300000.0,143.0,59.290395073236354,18.094482421875,67021.0,1575000.0
20191213.0,Slättåkragränd 42,95.0,4.0,SkandiaMäklarna Årsta,5354.0,2650000.0,38.0,59.29004441060584,18.032684326171875,27895.0,662500.0
20191211.0,Båstadsvägen 21,90.5,4.0,Svensk Fastighetsförmedling Hammarbyhöjden,5907.0,4850000.0,98.0,59.29320024421173,18.11370849609375,53591.0,1212500.0
20191210.0,Sandfjärdsgatan 134,91.5,4.0,Notar,4920.0,3800000.0,48.0,59.291797687627884,18.055343627929688,41530.0,950000.0
20191210.0,Skeppargatan 72,94.0,4.0,Lagerlings,3538.0,6900000.0,688.0,59.339102034423675,18.087615966796875,73404.0,1725000.0
2019129.0,Tellusborgsvägen 65E,94.0,4.0,Svenska Mäklarhuset Hägersten/Liljeholmen,4402.0,6750000.0,91.0,59.299160464811756,18.00384521484375,71809.0,1687500.0
2019126.0,Solberga Hagväg 13,90.0,4.0,Mäklarringen Hägersten/Skärholmen/Älvsjö,4934.0,3875000.0,32.0,59.280575153750675,18.008651733398438,43056.0,968750.0
2019125.0,Tackjärnsvägen 12,93.0,4.0,Svensk Fastighetsförmedling Bromma,4027.0,5200000.0,108.0,59.345054213102856,17.974319458007812,55914.0,1300000.0
2019125.0,Lämmelgränd 5,91.0,4.0,Notar,4576.0,5700000.0,38.0,59.334899868447216,17.961959838867188,62637.0,1425000.0
2019125.0,Hildebergsvägen 16,95.0,4.0,BOSTHLM Älvsjö,5846.0,5495000.0,183.0,59.30266598923771,18.02650451660156,57842.0,1373750.0
2019124.0,Kabelverksgatan 32 3tr,95.0,4.0,BOSTHLM Älvsjö,4944.0,4550000.0,57.0,59.282679660701504,18.001785278320312,47895.0,1137500.0
20191129.0,Skebokvarnsvägen 51D,90.5,4.0,Länsförsäkringar Fastighetsförmedling Stockholm - Enskede,4982.0,4100000.0,23.0,59.26969979523632,18.044357299804688,45304.0,1025000.0
20191129.0,Brattforsgatan 1 3tr,92.0,4.0,HusmanHagberg Farsta,5761.0,3510000.0,29.0,59.238457687853796,18.100662231445312,38152.0,877500.0
20191129.0,Solberga Hagväg 7,93.0,4.0,BOSTHLM Älvsjö,4255.0,3400000.0,25.0,59.279873622523965,18.00933837890625,36559.0,850000.0
20191128.0,Korphoppsgatan 33,93.5,4.0,Svenska Mäklarhuset Hammarby Sjöstad,5792.0,6595000.0,172.0,59.30441861599042,18.101348876953125,70535.0,1648750.0
20191128.0,Nordenflychtsvägen 65,94.0,4.0,HusmanHagberg Kungsholmen,4230.0,6790000.0,154.0,59.33840170952597,18.00933837890625,72234.0,1697500.0
20191128.0,Sjöviksbacken 6,93.5,4.0,SkandiaMäklarna Hägersten,5633.0,6780000.0,193.0,59.306521648894176,18.032684326171875,72513.0,1695000.0
20191127.0,Prästgårdsgränd 12,93.0,4.0,Fastighetsbyrån Hägersten/Älvsjö,4589.0,3950000.0,29.0,59.280925913943385,18.011398315429688,42473.0,987500.0
20191126.0,Elin Wägners gata 17,91.0,4.0,Länsförsäkringar Fastighetsförmedling Stockholm - Fruängen,6015.0,4225000.0,36.0,59.28478403756245,17.97088623046875,46429.0,1056250.0
20191126.0,Björksundsslingan 17,90.0,4.0,Länsförsäkringar Fastighetsförmedling Stockholm - Bandhagen,5674.0,3760000.0,24.0,59.26724358841752,18.053970336914066,41778.0,940000.0
20191122.0,Tellusborgsvägen 65C,94.0,4.0,Notar,4403.0,7300000.0,91.0,59.29951103351009,18.00384521484375,77660.0,1825000.0
20191121.0,Nordenflychtsvägen 65,95.0,4.0,Erik Olsson Fastighetsförmedling,4261.0,7200000.0,154.0,59.33840170952597,18.00933837890625,75789.0,1800000.0
20191120.0,Ekfatsgatan 4,90.0,4.0,Stones Fastighetsförmedling,4789.0,6750000.0,199.0,59.30582065237441,18.034744262695312,75000.0,1687500.0
20191118.0,Nybodaringen 17,90.5,4.0,Svenska Mäklarhuset Hägersten/Liljeholmen,6520.0,4910000.0,188.0,59.30336705077536,18.021697998046875,54254.0,1227500.0
20191118.0,Sibeliusgången 40,93.0,4.0,Svensk Fastighetsförmedling Vällingby/Hässelby/Spånga,5503.0,2350000.0,10.0,59.41604966652562,17.911148071289062,25269.0,587500.0
20191115.0,Östersundsgatan 4,91.0,4.0,Fastighetsbyrån Hässelby/Vällingby/Spånga,4816.0,3400000.0,39.0,59.35450552947265,17.884368896484375,37363.0,850000.0
20191114.0,Annedalsvägen 53,94.0,4.0,Notar,4766.0,4900000.0,60.0,59.36500390671915,17.94891357421875,52128.0,1225000.0
20191114.0,Beckomberga Ängsväg 20,91.0,4.0,Svenska Mäklarhuset Bromma,4730.0,5200000.0,20.0,59.35660546472486,17.898788452148438,57143.0,1300000.0
20191113.0,Lövholmsvägen 74,95.0,4.0,Fastighetsbyrån Hägersten/Älvsjö,5146.0,6510000.0,156.0,59.31388124009841,18.00933837890625,68526.0,1627500.0
20191112.0,Björksundsslingan 17,90.0,4.0,Mäklarringen Farsta-Bandhagen-Årsta,5282.0,4080000.0,24.0,59.26724358841752,18.053970336914066,45333.0,1020000.0
20191112.0,Primusgatan 69,90.0,4.0,Karlsson & Uddare AB,5387.0,7150000.0,130.0,59.3236915509461,18.003158569335938,79444.0,1787500.0
20191111.0,Söderberga Allé 21,90.0,4.0,Fastighetsbyrån Bromma,5441.0,2800000.0,21.0,59.35905522499852,17.898788452148438,31111.0,700000.0
2019118.0,Lingvägen 122,94.0,4.0,Svensk Fastighetsförmedling Farsta-Enskede,5943.0,4350000.0,23.0,59.26127777730629,18.08349609375,46277.0,1087500.0
2019117.0,Grindsgatan 35,90.0,4.0,Notar,4174.0,7200000.0,886.0,59.3089750229377,18.067703247070312,80000.0,1800000.0
2019115.0,Borgågatan 14,92.0,4.0,Unik Fastighetsförmedling AB,6034.0,2650000.0,15.0,59.414302795049856,17.922134399414062,28804.0,662500.0
20191030.0,Majrovägen 27,93.0,4.0,ERA Enskede-Farsta kontoret,6229.0,4300000.0,21.0,59.26127777730629,18.078689575195312,46237.0,1075000.0
20191029.0,Astrakangatan 100,91.0,4.0,Notar,5500.0,2425000.0,14.0,59.372001020873824,17.841796875,26648.0,606250.0
20191029.0,Rålambsvägen 72,93.0,4.0,Svensk Fastighetsförmedling Sthlm Kungsholmen,4599.0,5695000.0,126.0,59.33139766636693,17.999725341796875,61237.0,1423750.0
20191029.0,Götalandsvägen 230 6 tr,93.0,4.0,BOSTHLM Älvsjö,4824.0,4450000.0,29.0,59.279873622523965,18.003158569335938,47849.0,1112500.0
20191026.0,Lumaparksvägen 3,92.0,4.0,Fastighetsbyrån Stockholm - Hammarby Sjöstad,5066.0,5995000.0,328.0,59.30476913050454,18.09516906738281,65163.0,1498750.0
20191026.0,Tummelisas Gata 4,95.0,4.0,Mäklarringen Bromma,5460.0,4900000.0,65.0,59.36220465697896,17.949600219726562,51579.0,1225000.0
20191024.0,Ekholmsvägen 250 A,91.5,4.0,Fastighetsbyrån Gamla Skärholmen,6533.0,2340000.0,27.0,59.279873622523965,17.90496826171875,25574.0,585000.0
20191024.0,Allévägen 14 C,92.0,4.0,HusmanHagberg Bromma,5205.0,7300000.0,45.0,59.32894591010192,17.9791259765625,79348.0,1825000.0
20191024.0,Störtloppsvägen 42,91.0,4.0,Svensk Fastighetsförmedling Hägersten-Liljeholmen,4875.0,4250000.0,32.0,59.2949533586518,17.966079711914062,46703.0,1062500.0
20191023.0,Skäftingebacken 21,94.0,4.0,Notar,6447.0,2050000.0,21.0,59.397178685324576,17.902908325195312,21809.0,512500.0
20191022.0,Lofotengatan 23,91.0,4.0,Fastighetsbyrån Kista,5914.0,2550000.0,18.0,59.41185702359285,17.9241943359375,28022.0,637500.0
20191018.0,Skäftingebacken 25,94.0,4.0,Länsförsäkringar Fastighetsförmedling Stockholm - Kista/Tensta,6447.0,2100000.0,21.0,59.39682912356431,17.902908325195312,22340.0,525000.0
20191018.0,Tideliusgatan 55,94.0,4.0,HusmanHagberg Södermalm/Gamla Stan,4174.0,6175000.0,805.0,59.30967595444358,18.06427001953125,65691.0,1543750.0
20191016.0,Erik Tegels Väg 39,93.0,4.0,Mäklarhuset Spånga,5124.0,2475000.0,19.0,59.38179455652339,17.9132080078125,26613.0,618750.0
20191012.0,Västertorpsvägen 12,92.0,4.0,HusmanHagberg Hägersten,5911.0,4200000.0,48.0,59.29144703944954,17.975692749023438,45652.0,1050000.0
20191010.0,Sturehillsvägen 5,91.0,4.0,Mäklarhuset Liljeholmen,4541.0,5625000.0,179.0,59.30371757612586,18.03062438964844,61813.0,1406250.0
2019109.0,Storängsgatan 1,94.0,4.0,Fastighetsbyrån Stockholm – Norra Djurgårdsstaden,5823.0,7200000.0,290.0,59.35345551312992,18.087615966796875,76596.0,1800000.0
2019109.0,Morupsgränd 11,95.0,4.0,Svensk Fastighetsförmedling Älvsjö,4761.0,2600000.0,25.0,59.28653758557614,18.033370971679688,27368.0,650000.0
2019108.0,Lofotengatan 15,91.0,4.0,HusmanHagberg Kista,5849.0,2630000.0,26.0,59.41255583346086,17.925567626953125,28901.0,657500.0
2019107.0,Värmlandsvägen 9c,91.0,4.0,Mäklarhuset Enskede,5416.0,3400000.0,42.0,59.24723645329465,18.08555603027344,37363.0,850000.0
2019107.0,Elkabelgatan 1,92.0,4.0,BOSTHLM Älvsjö,4787.0,4400000.0,36.0,59.280925913943385,18.00384521484375,47826.0,1100000.0
2019104.0,Elin Wägners gata 47,92.0,4.0,Hägerstens Mäklare,6070.0,3500000.0,36.0,59.285836177210854,17.971572875976562,38043.0,875000.0
2019103.0,Mariestadsvägen 17,92.0,4.0,Svenska Mäklarhuset Johanneshov,5651.0,5200000.0,112.0,59.29670638277276,18.108901977539066,56522.0,1300000.0
2019103.0,Bågljusvägen 3,91.5,4.0,Svensk Fastighetsförmedling Sthlm Kungsholmen,5460.0,6850000.0,423.0,59.33384924572938,18.0230712890625,74863.0,1712500.0
2019102.0,Hammarby Allé 119,91.0,4.0,Svenska Mäklarhuset Hammarby Sjöstad,4299.0,5850000.0,239.0,59.30336705077536,18.099288940429688,64286.0,1462500.0
2019102.0,Årstavägen 7,95.0,4.0,Svensk Fastighetsförmedling Årsta,5433.0,5250000.0,88.0,59.29355087432541,18.058090209960934,55263.0,1312500.0
2019102.0,Skäftingebacken 9,94.0,4.0,Mäklarhuset Spånga,6506.0,2200000.0,20.0,59.39752824347911,17.901535034179688,23404.0,550000.0
2019101.0,Götgatan 102,90.0,4.0,Fastighetsbyrån Stockholm - Södermalm,3857.0,6000000.0,863.0,59.3089750229377,18.07525634765625,66667.0,1500000.0
2019101.0,Kabelverksgatan 32 5tr,95.0,4.0,BOSTHLM Älvsjö,4944.0,4620000.0,57.0,59.282679660701504,18.001785278320312,48632.0,1155000.0
20190927.0,Lidköpingsvägen 28,95.0,4.0,Svenska Mäklarhuset Johanneshov,4398.0,4700000.0,145.0,59.29214833219326,18.097915649414066,49474.0,1175000.0
20190926.0,Pepparvägen 60,91.0,4.0,Fastighetsbyrån Farsta/ Högdalen/ Skogås,5460.0,3350000.0,41.0,59.25109839409079,18.08349609375,36813.0,837500.0
20190926.0,Maltesholmsvägen 153,91.0,4.0,Mäklarringen Vällingby/Hässelby,5665.0,3350000.0,9.0,59.35975512402978,17.83355712890625,36813.0,837500.0
20190926.0,Nystadsgatan 20,92.0,4.0,Fastighetsbyrån Kista,5026.0,2990000.0,12.0,59.41570029943938,17.918014526367188,32500.0,747500.0
20190925.0,Skeppstavägen 9,92.0,4.0,Mäklarringen Farsta-Bandhagen-Årsta,5457.0,2900000.0,28.0,59.26829627017023,18.055343627929688,31522.0,725000.0
20190925.0,Virkesvägen 17C,92.0,4.0,Svenska Mäklarhuset Hammarby Sjöstad,4747.0,6495000.0,308.0,59.30196491325117,18.09654235839844,70598.0,1623750.0
20190924.0,Spikskogatan 16,93.0,4.0,Erik Olsson Nyproduktion,5212.0,4395000.0,49.0,59.28197817283924,18.005218505859375,47258.0,1098750.0
20190923.0,Ålgrytebacken 16,94.0,4.0,Fastighetsbyrån Gamla Skärholmen,4052.0,3600000.0,13.0,59.29845931657764,17.933120727539062,38298.0,900000.0
20190923.0,Prästgårdsgränd 7,93.0,4.0,BOSTHLM Älvsjö,4386.0,4010000.0,30.0,59.28022438994421,18.010711669921875,43118.0,1002500.0
20190922.0,Jämtlandsgatan 99,91.0,4.0,Mäklarhuset Vällingby-Hässelby,4815.0,4189500.0,37.0,59.355205522324454,17.884368896484375,46038.0,1047375.0
20190921.0,Drakenbergsgatan 15,92.0,4.0,Fastighetsbyrån Stockholm - Södermalm,3824.0,7125000.0,516.0,59.31563328896506,18.04229736328125,77446.0,1781250.0
20190921.0,Hammarbyterrassen 7,95.0,4.0,Fastighetsbyrån Stockholm - Hammarby Sjöstad,4853.0,7100000.0,518.0,59.304068097864196,18.088302612304688,74737.0,1775000.0
20190921.0,Gullmarsvägen 2,92.0,4.0,Mäklarhuset Saltsjö-Boo,4988.0,5500000.0,500.0,59.29880989250096,18.078689575195312,59783.0,1375000.0
20190920.0,Textilgatan 25,95.0,4.0,Karlsson & Uddare AB,5156.0,6900000.0,518.0,59.30336705077536,18.088302612304688,72632.0,1725000.0
20190919.0,Götgatan 124,95.0,4.0,Fastighetsbyrån Stockholm - Södermalm,4043.0,6040000.0,848.0,59.30792359859034,18.075942993164066,63579.0,1510000.0
20190919.0,Klintbacken 56 B,90.0,4.0,Fastighetsbyrån Bromma,5241.0,5040000.0,106.0,59.36010506813295,17.95440673828125,56000.0,1260000.0
20190919.0,Tummelisas Gata 4,94.0,4.0,Svenska Mäklarhuset Bromma,5460.0,4900000.0,65.0,59.36220465697896,17.949600219726562,52128.0,1225000.0
20190919.0,Sandalettgatan 1,93.0,4.0,Mäklarhuset Älvsjö,4992.0,4510000.0,44.0,59.28162742348764,18.007278442382812,48495.0,1127500.0
20190918.0,Fallskärmsgatan 2,90.0,4.0,Notar,5257.0,2850000.0,21.0,59.26619087413279,18.12950134277344,31667.0,712500.0
20190917.0,Slättgårdsvägen 103,95.0,4.0,Fastighetsbyrån Hägersten/Älvsjö,5241.0,3600000.0,29.0,59.290395073236354,17.950973510742188,37895.0,900000.0
20190917.0,Tummelisas gata 4,94.0,4.0,Fastighetsbyrån Bromma,5460.0,4710000.0,65.0,59.36220465697896,17.949600219726562,50106.0,1177500.0
20190917.0,Knäredsgränd 32,95.0,4.0,Notar,5281.0,3150000.0,21.0,59.28548546760815,18.0340576171875,33158.0,787500.0
20190915.0,Lumagatan 13,95.0,4.0,Svenska Mäklarhuset Hammarby Sjöstad,4374.0,6200000.0,391.0,59.30511964140653,18.09310913085937,65263.0,1550000.0
20190913.0,Svartviksslingan 1,91.5,4.0,BOSTHLM Fastighetsmäklare AB,5982.0,4400000.0,61.0,59.337001016413105,17.983932495117188,48087.0,1100000.0
20190912.0,Bjulevägen 21,94.0,4.0,Länsförsäkringar Fastighetsförmedling Stockholm - Enskede,7577.0,3400000.0,36.0,59.28127667052236,18.042984008789066,36170.0,850000.0
20190912.0,Paternostervägen 58,91.0,4.0,Bjurfors Hammarby/Skarpnäck & Farsta,4724.0,4775000.0,98.0,59.290395073236354,18.102035522460934,52473.0,1193750.0
20190912.0,Ormbergsvägen 10,90.0,3.0,Fastighetsbyrån Hägersten/Älvsjö,3700.0,6275000.0,157.0,59.31738524754815,18.007965087890625,69722.0,2091667.0
20190911.0,Sandfjärdsgatan 33,91.5,4.0,Svensk Fastighetsförmedling Årsta,5034.0,4500000.0,65.0,59.294602742989404,18.047103881835934,49180.0,1125000.0
20190911.0,Tackjärnsvägen 13,93.0,4.0,Mäklarringen Bromma,3854.0,4725000.0,109.0,59.34540430877549,17.97637939453125,50806.0,1181250.0
2019097.0,Götgatan 102,90.0,4.0,Fastighetsbyrån Stockholm - Södermalm,3857.0,6700000.0,863.0,59.3089750229377,18.07525634765625,74444.0,1675000.0
2019097.0,Segelbåtsvägen 10,90.0,4.0,Erik Olsson Fastighetsförmedling,5612.0,5900000.0,95.0,59.32474248776882,17.993545532226562,65556.0,1475000.0
2019096.0,Svartviksslingan 102,91.0,4.0,Fastighetsbyrån Bromma,5345.0,4325000.0,99.0,59.339102034423675,17.989425659179688,47527.0,1081250.0
2019096.0,Nybohovsgränd 28,90.0,4.0,Notar,4149.0,4120000.0,209.0,59.30792359859034,18.016891479492188,45778.0,1030000.0
2019095.0,Vättersvägen 28,95.0,4.0,Svensk Fastighetsförmedling Årsta,4144.0,5235000.0,152.0,59.295303970701426,18.05877685546875,55105.0,1308750.0
2019093.0,Puckgränd 25,91.0,4.0,Storstad Lokaler & Bostäder,4090.0,3700000.0,42.0,59.29004441060584,17.971572875976562,40659.0,925000.0
2019092.0,Slättåkragränd 42,95.0,4.0,SkandiaMäklarna Årsta,5255.0,2450000.0,38.0,59.29004441060584,18.032684326171875,25789.0,612500.0
20190830.0,Tackjärnsvägen 12,93.0,4.0,Notar,4027.0,4825000.0,108.0,59.345054213102856,17.974319458007812,51882.0,1206250.0
20190830.0,Vantörsvägen 275,94.5,4.0,Länsförsäkringar Fastighetsförmedling Stockholm - Fruängen,4373.0,4150000.0,29.0,59.286186883200166,17.95440673828125,43915.0,1037500.0
20190829.0,Lillhagsvägen 14,90.0,4.0,Mäklarringen Farsta-Bandhagen-Årsta,6259.0,2400000.0,21.0,59.26724358841752,18.012771606445312,26667.0,600000.0
20190829.0,Skeppstavägen 9,92.0,4.0,Högdalen - ERA Hem Mäklarna,5456.0,3000000.0,28.0,59.26829627017023,18.055343627929688,32609.0,750000.0
20190829.0,Bondegatan 25 B,92.5,4.0,Mäklarhuset Stockholm Innerstan,5095.0,6700000.0,898.0,59.313530819490786,18.082809448242188,72432.0,1675000.0
20190828.0,Alströmergatan 32 H,91.0,4.0,Fastighetsbyrån Stockholm - Kungsholmen,4444.0,6920000.0,408.0,59.337351195106066,18.02650451660156,76044.0,1730000.0
20190828.0,Ymsenvägen 3,91.0,4.0,Svensk Fastighetsförmedling Årsta,4401.0,5620000.0,482.0,59.29880989250096,18.067703247070312,61758.0,1405000.0
20190827.0,Virkesvägen 19D,93.0,4.0,Fastighetsbyrån Stockholm - Hammarby Sjöstad,4794.0,6760000.0,283.0,59.30231545305057,18.09722900390625,72688.0,1690000.0
20190827.0,Beckomberga Ängsväg 24,91.0,4.0,Svenska Mäklarhuset Bromma,4730.0,4450000.0,20.0,59.35730541427385,17.898788452148438,48901.0,1112500.0
20190825.0,Sköntorpsvägen 5,93.0,4.0,Fastighetsbyrån Årsta,5793.0,4700000.0,475.0,59.29845931657764,18.06976318359375,50538.0,1175000.0
20190824.0,Gamla Huddingevägen 444,95.0,4.0,SkandiaMäklarna Älvsjö,5094.0,4200000.0,21.0,59.27461167755093,18.023757934570312,44211.0,1050000.0
20190823.0,Skeppstavägen 29,93.0,4.0,Fastighetsbyrån Farsta/ Högdalen/ Skogås,5516.0,3030000.0,28.0,59.26689268727064,18.058090209960934,32581.0,757500.0
20190823.0,Ymsenvägen 5,91.5,4.0,Notar,4466.0,5310000.0,469.0,59.29845931657764,18.068389892578125,58033.0,1327500.0
20190822.0,Skebokvarnsvägen 51A,90.5,4.0,Mäklarringen Farsta-Bandhagen-Årsta,4982.0,4350000.0,24.0,59.269348919391604,18.043670654296875,48066.0,1087500.0
20190822.0,Kärrtorpsvägen 7,94.0,4.0,Svenska Mäklarhuset Johanneshov,4740.0,4875000.0,50.0,59.286186883200166,18.11851501464844,51862.0,1218750.0
20190821.0,Sorögatan 41,91.5,4.0,Fastighetsbyrån Kista,6054.0,2510000.0,75.0,59.40451864940696,17.937240600585938,27432.0,627500.0
20190821.0,Lindhagensgatan 135,93.5,4.0,Karlsson & Uddare AB,3438.0,6575000.0,144.0,59.33840170952597,18.006591796875,70321.0,1643750.0
20190816.0,Korphoppsgatan 33,93.3,4.0,Södermäklarna,5792.0,7400000.0,172.0,59.30441861599042,18.101348876953125,79314.0,1850000.0
20190816.0,Vantörsvägen 285,93.5,4.0,Fastighetsbyrån Hägersten/Älvsjö,4284.0,3980000.0,29.0,59.286186883200166,17.952346801757812,42567.0,995000.0
20190816.0,Jämtlandsgatan 107,91.0,4.0,Mäklarhuset Vällingby-Hässelby,4815.0,4195000.0,37.0,59.355205522324454,17.883682250976562,46099.0,1048750.0
20190814.0,Friherregatan 43,95.0,4.0,Fastighetsbyrån Hässelby,6045.0,2400000.0,9.0,59.36640344499794,17.835617065429688,25263.0,600000.0
20190813.0,Tummelisas Gata 4,95.0,4.0,Bjurfors Bromma,5460.0,4550000.0,65.0,59.36220465697896,17.949600219726562,47895.0,1137500.0
20190810.0,Nybohovsbacken 46,94.0,4.0,Svensk Fastighetsförmedling Hägersten-Liljeholmen,5716.0,5950000.0,216.0,59.30932549049653,18.01826477050781,63298.0,1487500.0
2019087.0,Högviltsgatan 5,91.0,4.0,Notar,4493.0,7025000.0,128.0,59.35660546472486,18.08555603027344,77198.0,1756250.0
2019087.0,Tideliusgatan 55,90.0,4.0,Fastighetsmäklarna,4199.0,6200000.0,805.0,59.30967595444358,18.06427001953125,68889.0,1550000.0
2019082.0,Ågesta Broväg 42,94.0,4.0,HusmanHagberg Farsta,5293.0,3650000.0,30.0,59.24056479769392,18.10272216796875,38830.0,912500.0
20190723.0,Sandfjärdsgatan 106 - Accepterat pris,91.5,4.0,Erik Olsson Fastighetsförmedling,4720.0,3970000.0,44.0,59.292498973145676,18.051910400390625,43388.0,992500.0
20190722.0,Lämmelgränd 11,91.0,4.0,Fastighetsbyrån Bromma,4576.0,6380000.0,34.0,59.33525006879975,17.960586547851562,70110.0,1595000.0
20190716.0,Gransätragränd 25,94.5,4.0,Tomas Mäklarbyrå AB,4980.0,2900000.0,30.0,59.283731865392866,17.914581298828125,30688.0,725000.0
2019079.0,Ringstedsgatan 5,91.5,4.0,HusmanHagberg Kista,5534.0,2590000.0,78.0,59.39752824347911,17.942733764648438,28306.0,647500.0
2019079.0,Edagränd 12,93.0,4.0,HusmanHagberg Farsta,5411.0,4300000.0,35.0,59.23880888186861,18.099288940429688,46237.0,1075000.0
2019079.0,Bäverdammsgränd 86,90.5,4.0,Svenska Mäklarhuset Älvsjö/Bandhagen,5865.0,2300000.0,14.0,59.25180051813861,18.032684326171875,25414.0,575000.0
2019077.0,Sorögatan 89,91.5,4.0,HusmanHagberg Kista,6054.0,2500000.0,74.0,59.405217610682,17.935867309570312,27322.0,625000.0
2019072.0,Jämtlandsgatan 107,91.0,4.0,Mäklarhuset Vällingby-Hässelby,4815.0,4135500.0,37.0,59.355205522324454,17.883682250976562,45445.0,1033875.0
20190630.0,Bäverbäcksgränd 70,93.0,4.0,Fastighetsbyrån Farsta/ Högdalen/ Skogås,6624.0,2150000.0,17.0,59.25390680350548,18.035430908203125,23118.0,537500.0
20190625.0,Ekfatsgatan 4,90.0,4.0,Södermäklarna,4789.0,6600000.0,199.0,59.30582065237441,18.034744262695312,73333.0,1650000.0
20190620.0,Rådmansgatan 75,95.0,4.0,Svensk Fastighetsförmedling Sthlm Vasastan,3459.0,7060000.0,1300.0,59.33875187377971,18.05259704589844,74316.0,1765000.0
20190619.0,Glädjevägen 8b,95.0,4.0,Svensk Fastighetsförmedling Vällingby/Hässelby/Spånga,5840.0,2300000.0,7.0,59.38214427335229,17.804718017578125,24211.0,575000.0
20190619.0,Geijersvägen 24,94.0,4.0,Nestor Fastighetsmäkleri,4195.0,6450000.0,192.0,59.33314881253376,18.0120849609375,68617.0,1612500.0
20190615.0,Vinodlargatan 6,95.0,4.0,BOSTHLM Älvsjö,5317.0,6275000.0,184.0,59.30687214173611,18.03131103515625,66053.0,1568750.0
20190614.0,Selebovägen 4,90.0,4.0,SkandiaMäklarna Enskede,5302.0,4160000.0,25.0,59.272506671874105,18.067703247070312,46222.0,1040000.0
20190613.0,Tackjärnsvägen 12,90.5,4.0,Fastighetsbyrån Bromma,3941.0,5000000.0,108.0,59.345054213102856,17.974319458007812,55249.0,1250000.0
20190613.0,Alpvägen 27,95.0,4.0,Svenska Mäklarhuset Bromma,4827.0,5450000.0,85.0,59.36185473452511,17.952346801757812,57368.0,1362500.0
20190613.0,Ymsenvägen 5,91.5,4.0,Svensk Fastighetsförmedling Årsta,4274.0,5250000.0,469.0,59.29845931657764,18.068389892578125,57377.0,1312500.0
20190612.0,Sjöfartsgatan 3,90.5,4.0,Södermäklarna,5192.0,7100000.0,511.0,59.30441861599042,18.0889892578125,78453.0,1775000.0
20190612.0,Mariebergsgatan 15,91.5,4.0,HusmanHagberg Kungsholmen,4141.0,6150000.0,432.0,59.33384924572938,18.024444580078125,67213.0,1537500.0
20190611.0,Mariehällsvägen 16,91.8,4.0,Bjurfors Bromma,5478.0,4850000.0,113.0,59.36010506813295,17.957839965820312,52832.0,1212500.0
2019067.0,Glädjevägen 2B,95.0,4.0,HusmanHagberg Vällingby/Hässelby/Spånga,5840.0,3000000.0,7.0,59.38179455652339,17.8033447265625,31579.0,750000.0
2019065.0,Ekholmsvägen 206,94.0,4.0,Fastighetsbyrån Gamla Skärholmen,4014.0,3000000.0,30.0,59.27917207684207,17.907028198242188,31915.0,750000.0
2019065.0,Högbergsgatan 75B,90.0,4.0,Fastighetsbyrån Stockholm - Södermalm,2755.0,6900000.0,1100.0,59.31528288641451,18.06358337402344,76667.0,1725000.0
2019065.0,Blekingegatan 29,95.0,4.0,BOSTHLM Fastighetsmäklare AB,5883.0,5140290.0,887.0,59.30967595444358,18.06976318359375,54108.0,1285072.0
20190531.0,Gransätragränd 25,92.0,4.0,HusmanHagberg Hägersten,5036.0,2850000.0,30.0,59.283731865392866,17.914581298828125,30978.0,712500.0
20190531.0,Primusgatan 64,92.0,4.0,Karlsson & Uddare AB,5580.0,6000000.0,132.0,59.3236915509461,18.001785278320312,65217.0,1500000.0
20190529.0,Beckomberga allé 8,90.0,4.0,Fastighetsbyrån Bromma,3868.0,4500000.0,14.0,59.35835531153387,17.905654907226562,50000.0,1125000.0
20190529.0,Bergtallsvägen 19,91.0,4.0,SkandiaMäklarna Älvsjö,4312.0,5100000.0,35.0,59.28127667052236,17.97088623046875,56044.0,1275000.0
20190529.0,Nockeby Torg 27,95.0,4.0,Fjelkners Fastighetsmäkleri,4268.0,6170000.0,25.0,59.32299090834371,17.938613891601562,64947.0,1542500.0
20190529.0,Blekegatan 3,95.0,4.0,BOSTHLM Fastighetsmäklare AB,4374.0,5930000.0,188.0,59.306521648894176,18.02650451660156,62421.0,1482500.0
20190528.0,Elinsborgsbacken 35,94.0,4.0,HusmanHagberg Kista,6329.0,2020000.0,18.0,59.39787779802796,17.897415161132812,21489.0,505000.0
20190527.0,Harplingegränd 16,95.0,4.0,Fastighetsbyrån Hägersten/Älvsjö,5470.0,2720000.0,28.0,59.28829104325625,18.035430908203125,28632.0,680000.0
20190524.0,Tideliusgränd 7,92.0,4.0,Fastighetsbyrån Stockholm - Södermalm,4913.0,7400000.0,871.0,59.3110777741145,18.064956665039066,80435.0,1850000.0
20190524.0,Kristinebergsvägen 14,94.0,4.0,SkandiaMäklarna Stockholm Kungsholmen,4068.0,5600000.0,247.0,59.33384924572938,18.014144897460938,59574.0,1400000.0
20190523.0,Våxtorpsgränd 26,95.0,4.0,Fastighetsbyrån Hägersten/Älvsjö,5410.0,2710000.0,23.0,59.28829104325625,18.0340576171875,28526.0,677500.0
20190523.0,Valhallavägen 80,90.0,3.0,Eklund Stockholm New York,5353.0,7490000.0,1200.0,59.345054213102856,18.072509765625,83222.0,2496667.0
20190523.0,Johan Skyttes väg 372,91.0,3.0,BOSTHLM Älvsjö,5573.0,5325000.0,36.0,59.279873622523965,17.977066040039062,58516.0,1775000.0
20190522.0,Helsingforsgatan 31,90.0,4.0,HusmanHagberg Kista,5295.0,2400000.0,13.0,59.41220643032919,17.918701171875,26667.0,600000.0
20190522.0,Sköntorpsvägen 128,94.0,4.0,Svensk Fastighetsförmedling Årsta,5218.0,5485000.0,264.0,59.30126382281549,18.051910400390625,58351.0,1371250.0
20190522.0,Norra Stationsgatan 95A,93.0,4.0,Bostadsrättsspecialisten,3569.0,6775000.0,505.0,59.345054213102856,18.03131103515625,72849.0,1693750.0
20190522.0,Kabelverksgatan 3,94.0,4.0,BOSTHLM Älvsjö,4859.0,4600000.0,33.0,59.280575153750675,18.004531860351562,48936.0,1150000.0
20190520.0,Ekhagsvägen 9,93.0,4.0,Historiska Hem,4799.0,6750000.0,29.0,59.372001020873824,18.054656982421875,72581.0,1687500.0
20190520.0,Majrovägen 1,92.0,4.0,Svensk Fastighetsförmedling Farsta-Enskede,5863.0,4500000.0,23.0,59.26127777730629,18.08349609375,48913.0,1125000.0
20190517.0,Kaskögatan 30,90.0,4.0,Fastighetsbyrån Kista,5487.0,2310000.0,10.0,59.41709774615798,17.9132080078125,25667.0,577500.0
20190517.0,Slättåkragränd 10,95.0,4.0,SkandiaMäklarna Årsta,5255.0,2400000.0,41.0,59.2907457322538,18.031997680664066,25263.0,600000.0
20190516.0,Nybohovsbacken 44,94.0,4.0,Svensk Fastighetsförmedling Hägersten-Liljeholmen,5716.0,6000000.0,217.0,59.30932549049653,18.018951416015625,63830.0,1500000.0
20190516.0,Wollmar Yxkullsgatan 38,91.0,4.0,Erik Olsson Fastighetsförmedling,2979.0,7310000.0,980.0,59.31598368790425,18.0560302734375,80330.0,1827500.0
20190515.0,Trollesundsvägen 48,90.5,4.0,Bjurfors Enskede,6226.0,3320000.0,23.0,59.268998039932356,18.05122375488281,36685.0,830000.0
20190515.0,Torsbygatan 34,91.0,4.0,Notar,4389.0,3400000.0,39.0,59.24302292795719,18.09722900390625,37363.0,850000.0
20190515.0,Solberga Ängsväg 5A,92.5,4.0,BOSTHLM Älvsjö,5585.0,3250000.0,32.0,59.28127667052236,18.012771606445312,35135.0,812500.0
20190514.0,Beckomberga allé 6,90.5,4.0,Fastighetsbyrån Bromma,4708.0,4300000.0,14.0,59.35870527007038,17.905654907226562,47514.0,1075000.0
20190513.0,Svartviksslingan 88,90.5,4.0,Fastighetsbyrån Bromma,5071.0,5450000.0,92.0,59.33980234488247,17.98736572265625,60221.0,1362500.0
20190510.0,Bastuhagsvägen 57,90.0,4.0,Länsförsäkringar Fastighetsförmedling Stockholm - Bandhagen,5034.0,4300000.0,24.0,59.27496249918068,18.045730590820312,47778.0,1075000.0
2019059.0,Storsegelvägen 10,90.0,4.0,Fastighetsbyrån Hägersten/Älvsjö,4875.0,6400000.0,133.0,59.31703486305407,17.99835205078125,71111.0,1600000.0
2019059.0,Nybodaringen 9,90.5,4.0,Fastighetsbyrån Hägersten/Älvsjö,6667.0,4640000.0,186.0,59.30301652181264,18.021697998046875,51271.0,1160000.0
2019059.0,Mörtvikskroken 13,95.0,4.0,Notar,4006.0,6350000.0,102.0,59.312479535998925,17.994918823242188,66842.0,1587500.0
2019059.0,Sankt Göransgatan 102,91.0,3.0,Svensk Fastighetsförmedling Sthlm Kungsholmen,4299.0,6400000.0,433.0,59.33419945691206,18.025131225585934,70330.0,2133333.0
2019059.0,Sandfjärdsgatan 110,91.5,4.0,Svenska Mäklarhuset Hammarby Sjöstad,4720.0,4300000.0,46.0,59.292498973145676,18.05259704589844,46995.0,1075000.0
2019058.0,Vingavägen 8,94.5,4.0,Fastighetsbyrån Enskede,5328.0,5200000.0,133.0,59.28969374436223,18.09310913085937,55026.0,1300000.0
2019058.0,Paternostervägen 58,91.0,4.0,Mäklarhuset Hammarbyhöjden,4724.0,4800000.0,98.0,59.290395073236354,18.102035522460934,52747.0,1200000.0
2019057.0,Stövelvägen 5,93.7,4.0,SkandiaMäklarna Älvsjö,5992.0,2995000.0,82.0,59.287940358946784,18.004531860351562,31964.0,748750.0
2019056.0,Sköntorpsvägen 5,92.0,4.0,Notar,5769.0,4500000.0,475.0,59.29845931657764,18.06976318359375,48913.0,1125000.0
2019054.0,Tideliusgränd 7,92.0,4.0,Fastighetsbyrån Stockholm - Södermalm,4913.0,6920000.0,871.0,59.3110777741145,18.064956665039066,75217.0,1730000.0
2019053.0,Blackebergsbacken 5,94.5,4.0,Notar,5420.0,4630000.0,15.0,59.34085278349814,17.883682250976562,48995.0,1157500.0
2019053.0,Garagevägen 21,93.0,4.0,Svensk Fastighetsförmedling Hammarbyhöjden,5119.0,5300000.0,139.0,59.2907457322538,18.09654235839844,56989.0,1325000.0
2019053.0,Nordenflychtsvägen 69,95.0,4.0,Erik Olsson Fastighetsförmedling,4734.0,6950000.0,154.0,59.33875187377971,18.00933837890625,73158.0,1737500.0
2019052.0,Skedviksvägen 44,94.5,4.0,Svensk Fastighetsförmedling Årsta,5477.0,4825000.0,151.0,59.299160464811756,18.051910400390625,51058.0,1206250.0
2019052.0,Drakenbergsgatan 21,92.0,4.0,Fastighetsbyrån Stockholm - Södermalm,3824.0,6900000.0,477.0,59.31528288641451,18.04161071777344,75000.0,1725000.0
2019052.0,Skäftingebacken 3,94.0,4.0,Notar,6506.0,2220000.0,20.0,59.39752824347911,17.900848388671875,23617.0,555000.0
2019051.0,Korphoppsgatan 33,93.7,4.0,Södermäklarna,5817.0,6900000.0,172.0,59.30441861599042,18.101348876953125,73639.0,1725000.0
20190430.0,Ullaredsgränd 24,95.0,4.0,Fastighetsbyrån Hägersten/Älvsjö,5456.0,2700000.0,29.0,59.288641723952544,18.035430908203125,28421.0,675000.0
20190429.0,Eldsbergagränd 26,95.0,4.0,SkandiaMäklarna Årsta,5031.0,2850000.0,25.0,59.28688828433875,18.034744262695312,30000.0,712500.0
20190424.0,Folkparksvägen 160,90.5,3.0,Fastighetsbyrån Hägersten/Älvsjö,5266.0,3810000.0,42.0,59.28197817283924,18.011398315429688,42099.0,1270000.0
20190424.0,Annedalsvägen 54,91.0,4.0,Bjurfors Bromma,5350.0,4050000.0,38.0,59.36605356584008,17.9461669921875,44505.0,1012500.0
20190424.0,Glädjevägen 8B,95.0,4.0,Mäklarringen Vällingby/Hässelby,5840.0,2500000.0,7.0,59.38214427335229,17.804718017578125,26316.0,625000.0
20190422.0,Ålgrytebacken 8,94.0,4.0,Notar,4133.0,3140000.0,12.0,59.2981087370418,17.93243408203125,33404.0,785000.0
20190422.0,Norra Stationsgatan 111,95.0,4.0,HusmanHagberg Vasastan,4298.0,6650000.0,472.0,59.34400390442908,18.02925109863281,70000.0,1662500.0
20190419.0,Ellen Keys Gata 68,92.0,4.0,Svenska Mäklarhuset Hägersten/Liljeholmen,4337.0,4470000.0,29.0,59.283731865392866,17.964706420898438,48587.0,1117500.0
20190418.0,Ringstedsgatan 47,91.5,4.0,Fastighetsbyrån Kista,5534.0,3060000.0,78.0,59.39822734897114,17.940673828125,33443.0,765000.0
20190418.0,Jämtlandsgatan 88,90.0,4.0,Mäklarringen Vällingby/Hässelby,5054.0,2715000.0,36.0,59.360455008627824,17.871322631835938,30167.0,678750.0
20190414.0,Maria Röhls Väg 11,95.0,4.0,Notar,4608.0,6300000.0,15.0,59.26022487866129,18.1219482421875,66316.0,1575000.0
20190413.0,Askängsbacken 20,92.0,4.0,Bjurfors Bromma,5629.0,5000000.0,120.0,59.360455008627824,17.95989990234375,54348.0,1250000.0
20190413.0,Ullvidevägen 23,91.0,4.0,Fastighetsbyrån Hässelby/Vällingby/Spånga,4464.0,2480000.0,33.0,59.37619859672273,17.858963012695312,27253.0,620000.0
20190412.0,Gubbkärrsvägen 29H,95.0,4.0,Svenska Mäklarhuset Bromma,6281.0,3900000.0,9.0,59.33139766636693,17.91595458984375,41053.0,975000.0
20190411.0,Torsbygatan 20,91.0,4.0,Fastighetsbyrån Farsta/ Högdalen/ Skogås,4360.0,3110000.0,39.0,59.243374074957856,18.09654235839844,34176.0,777500.0
20190410.0,Bergslagsvägen 76,90.5,4.0,Fastighetsbyrån Bromma,4904.0,4325000.0,19.0,59.342603442332475,17.927627563476562,47790.0,1081250.0
2019049.0,Pettsons Gata 4,94.0,3.0,Bjurfors Bromma,5056.0,3950000.0,38.0,59.36430411593223,17.9461669921875,42021.0,1316667.0
2019049.0,Edagränd 18 2tr,93.0,4.0,HusmanHagberg Farsta,5191.0,3940000.0,36.0,59.23916007226682,18.099288940429688,42366.0,985000.0
2019049.0,Ätravägen 20,90.0,4.0,Svensk Fastighetsförmedling Farsta-Enskede,5143.0,5400000.0,32.0,59.28127667052236,18.124008178710934,60000.0,1350000.0
2019048.0,Götalandsvägen 230,93.0,4.0,Mäklarringen Enskede,4824.0,4450000.0,29.0,59.279873622523965,18.003158569335938,47849.0,1112500.0
2019046.0,Henriksdalsallén 24,92.5,4.0,Nestor Fastighetsmäkleri,4666.0,5795000.0,163.0,59.310376871502456,18.104782104492188,62649.0,1448750.0
2019045.0,Solberga Hagväg 18,94.0,4.0,Fastighetsbyrån Hägersten/Älvsjö,5138.0,3250000.0,32.0,59.280575153750675,18.008651733398438,34574.0,812500.0
2019045.0,Ormbergsvägen 10,91.0,3.0,Notar,3730.0,6160000.0,157.0,59.31738524754815,18.007965087890625,67692.0,2053333.0
2019045.0,Onsalagränd 15,95.0,4.0,Notar,5105.0,2900000.0,29.0,59.28688828433875,18.03680419921875,30526.0,725000.0
2019044.0,Hägerstensvägen 99A,90.0,4.0,Fastighetsbyrån Hägersten/Älvsjö,5801.0,5650000.0,117.0,59.305470148696486,18.007278442382812,62778.0,1412500.0
2019044.0,Maria prästgårdsgata 67,90.0,4.0,SkandiaMäklarna Stockholm Södermalm,4415.0,5800000.0,993.0,59.31528288641451,18.057403564453125,64444.0,1450000.0
2019044.0,Sonja Kovalevskys Gata 6,91.0,4.0,Mäklarhuset Stockholm Innerstan,4605.0,7380000.0,536.0,59.34715473299961,18.034744262695312,81099.0,1845000.0
20190331.0,Bergsgatan 34,93.0,3.0,HusmanHagberg Kungsholmen,5217.0,7000000.0,1100.0,59.32999668444899,18.044357299804688,75269.0,2333333.0
20190330.0,Sturehillsvägen 13,95.0,4.0,Bjurfors Liljeholmen Hägersten,4679.0,6800000.0,183.0,59.304068097864196,18.03131103515625,71579.0,1700000.0
20190330.0,Folkparksvägen 130,94.0,4.0,BOSTHLM Älvsjö,4961.0,3995000.0,72.0,59.28653758557614,18.008651733398438,42500.0,998750.0
20190329.0,Melongatan 14,92.0,4.0,Fastighetsbyrån Hässelby,4687.0,2990000.0,9.0,59.36500390671915,17.834930419921875,32500.0,747500.0
20190329.0,Sickla kanalgata 3,93.0,4.0,Svenska Mäklarhuset Hammarby Sjöstad,5816.0,5750000.0,125.0,59.30582065237441,18.10615539550781,61828.0,1437500.0
20190328.0,Lumagatan 13,93.0,4.0,Fastighetsbyrån Stockholm - Hammarby Sjöstad,4466.0,5640000.0,391.0,59.30511964140653,18.09310913085937,60645.0,1410000.0
20190328.0,Ålgrytebacken 14,94.0,4.0,Fastighetsbyrån Hägersten/Älvsjö,4216.0,3600000.0,13.0,59.29845931657764,17.933120727539062,38298.0,900000.0
20190328.0,Tideliusgränd 7,92.0,4.0,Fastighetsbyrån Stockholm - Södermalm,4913.0,7300000.0,871.0,59.3110777741145,18.064956665039066,79348.0,1825000.0
20190328.0,Magnus Ladulåsgatan 15,93.0,4.0,Bjurfors Södermalm,4472.0,6050000.0,857.0,59.312479535998925,18.060836791992188,65054.0,1512500.0
20190328.0,Odelbergsvägen 34,94.0,4.0,Mäklarhuset Stockholm Innerstan,6347.0,5300000.0,89.0,59.289343074505474,18.069076538085934,56383.0,1325000.0
20190326.0,Pär Lagerkvists Gata 24,94.0,4.0,Karlsson & Uddare AB,4101.0,7350000.0,144.0,59.33945219145792,18.006591796875,78191.0,1837500.0
